,nodeID,nodeLabel,latitude,longitude,mode,year
0,0,Congreso - Presidente Dr. Raúl Alfonsín,-58.39269648617438,-34.60923924206838,heavy_rail,1913.0
1,1,Juan Manuel de Rosas - Villa Urquiza,-58.48656820800867,-34.57410315127712,heavy_rail,2013.0
2,2,Medrano - Almagro,-58.4209624717517,-34.6031649022273,heavy_rail,1930.0
3,3,Pasteur - AMIA,-58.3994742577363,-34.6046429678427,heavy_rail,1930.0
4,4,Callao - Maestro Alfredo Bravo,-58.3927812622604,-34.6044640362732,heavy_rail,1930.0
5,5,Tribunales - Teatro Colón,-58.38521099509144,-34.60155832576589,heavy_rail,1937.0
6,6,Ministro Carranza - Miguel Abuelo,-58.43500544276454,-34.57517207734361,heavy_rail,1993.0
7,7,Sáenz,-58.41772579034085,-34.64947650634418,heavy_rail,999999.0
8,8,Facultad de Derecho - Julieta Lanteri,-58.39100569935759,-34.582987536452535,heavy_rail,2018.0
9,9,Humberto 1º,-58.40230251495974,-34.62309560710808,heavy_rail,2007.0
10,10,Inclán - Mezquita Al Ahmad,-58.400954804782685,-34.629375244274584,heavy_rail,2007.0
11,11,Once - 30 de Diciembre,-58.40602879106705,-34.608947926167176,heavy_rail,2007.0
12,12,Santa Fe - Carlos Jáuregui,-58.402344858393235,-34.594457198201546,heavy_rail,2016.0
13,13,Retiro,-58.37584346021206,-34.5924346730826,heavy_rail,2019.0
14,14,Plaza de los Virreyes - Eva Perón,-58.461770807244925,-34.64317550833751,heavy_rail,1986.0
15,15,Catalinas,-58.37197996591011,-34.59680621830303,heavy_rail,2019.0
16,16,Correo Central,-58.370233681560336,-34.60340653062607,heavy_rail,2019.0
17,17,Balbastro,-58.456299890832994,-34.64871586854532,tram,1987.0
18,18,Intendente Saguier,-58.461852324410444,-34.64306288348926,tram,1987.0
19,19,Mariano Acosta,-58.45654715646777,-34.65437974384756,tram,1987.0
20,20,Ana María Janer,-58.44991234270943,-34.65959057233384,tram,1987.0
21,21,Cecilia Grierson,-58.45769456051625,-34.67232720607125,tram,1987.0
22,22,Escalada,-58.46005095133448,-34.67445371092862,tram,1987.0
23,23,Larrazábal,-58.46532460936515,-34.68059937539099,tram,1987.0
24,24,Gabino Ezeiza,-58.45823696127458,-34.685861898543294,tram,1987.0
25,25,Ana Díaz,-58.46680709732453,-34.680514509411594,tram,1987.0
26,26,Centro Cívico,-58.46510250089386,-34.683567734149335,tram,1987.0
27,27,Somellera,-58.45378271083462,-34.65653580407197,tram,1987.0
28,28,Parque de la Ciudad,-58.45426332703083,-34.66901849769002,tram,1987.0
29,29,Pola,-58.46443441630648,-34.678090916478475,tram,2006.0
30,30,Nicolás Descalzi,-58.46236199258477,-34.68282766342487,tram,1987.0
31,31,General Savio,-58.46093536482354,-34.689715522467516,tram,1987.0
32,32,Nuestra Señora de Fátima,-58.448736968646436,-34.660536166980066,tram,2000.0
33,33,Fernández de la Cruz,-58.44650643580956,-34.66226312281598,tram,1987.0
34,34,Presidente Illia,-58.448889572091254,-34.665446822959645,tram,1987.0
35,35,Presidente Illia,-58.44883308350196,-34.66529371252917,tram,1987.0
36,36,Tucumán,-58.624178009154775,-34.56283002590687,brt,2017.0
37,37,Hugo del Carril,-58.61973852836675,-34.56282018353652,brt,2017.0
38,38,Gabino Ezeiza,-58.6134764385295,-34.56276598436349,brt,2017.0
39,39,1° de Mayo,-58.610062248018295,-34.56276087293959,brt,2017.0
40,40,San Martín,-58.593507418473706,-34.56262943536249,brt,2017.0
41,41,Hospital Dr. Bocalandro,-58.60262481698358,-34.56272778149378,brt,2017.0
42,42,General Lavalle,-58.598334241441364,-34.56266917802651,brt,2017.0
43,43,Reconquista,-58.585813768226544,-34.562602054925144,brt,2019.0
44,44,Cuba,-58.58040675603009,-34.56261139027034,brt,2019.0
45,45,Martín Fierro,-58.57359568477406,-34.56399330979582,brt,2019.0
46,46,José Hernández,-58.56858453724902,-34.5650973057036,brt,2019.0
47,47,O´Donnell,-58.56503586531346,-34.56587535326168,brt,2019.0
48,48,Moreno,-58.56086641504551,-34.566790330892154,brt,2019.0
49,49,Guido Spano,-58.55687170486769,-34.56867084157056,brt,2019.0
50,50,Hospital Eva Perón,-58.55355751033896,-34.57130081970557,brt,2019.0
51,51,José C. Paz,-58.54857594579052,-34.57526353793706,brt,2019.0
52,52,Murature,-58.523606486942576,-34.58793576635238,brt,2019.0
53,53,Av. General Paz,-58.519937575334495,-34.589040619243534,brt,2019.0
54,54,Rodríguez Peña,-58.52566353386561,-34.58734751900473,brt,2019.0
55,55,Lambaré,-58.58642469386299,-34.63555917243212,brt,2018.0
56,56,Fassola,-58.59217841050658,-34.63546270992283,brt,2018.0
57,57,Dolores Prats,-58.59743265632915,-34.63557860750253,brt,2018.0
58,58,Primera Junta,-58.602608804379614,-34.63581245136373,brt,2018.0
59,59,Derqui,-58.612867804108504,-34.634241875367216,brt,2018.0
60,60,La Rioja,-58.617371650612185,-34.633601202792505,brt,2018.0
61,61,Amado Nervo,-58.60756981355729,-34.63504739958942,brt,2018.0
62,62,Matienzo,-58.44014271128394,-34.57242573782169,brt,2016.0
63,63,Humboldt,-58.427921672999275,-34.57763874469705,brt,2016.0
64,64,Fitz Roy,-58.429289722420236,-34.57725890739533,brt,2016.0
65,65,La Pampa,-58.45468968542684,-34.56436225727243,brt,2016.0
66,66,Thames,-58.422120622647796,-34.580714875552644,brt,2016.0
67,67,Uriarte,-58.42301703423355,-34.58013577726729,brt,2016.0
68,68,Sucre,-58.45550749246719,-34.56340961770993,brt,2016.0
69,69,Darregueyra,-58.423889554848216,-34.579548712739474,brt,2016.0
70,70,Oro,-58.424780385832946,-34.57898031226003,brt,2016.0
71,71,Monroe,-58.46022801185113,-34.55797446674086,brt,2016.0
72,72,Juan B. Justo,-58.426897122043314,-34.577954817402336,brt,2016.0
73,73,Juramento,-58.456877930604264,-34.56181204949186,brt,2016.0
74,74,Jorge Newbery,-58.4413300321219,-34.57178171512807,brt,2016.0
75,75,Roosevelt,-58.46119643962872,-34.55691631412104,brt,2016.0
76,76,Maure,-58.44220497223638,-34.57131367660797,brt,2016.0
77,77,Gorostiaga,-58.44294446522835,-34.570943784855196,brt,2016.0
78,78,Crisólogo Larralde,-58.46835856718664,-34.5487620028816,brt,2015.0
79,79,Olleros,-58.44456464614872,-34.57013474006004,brt,2016.0
80,80,Ugarte,-58.46209928213655,-34.55596086711608,brt,2016.0
81,81,Teodoro García,-58.44635368483186,-34.56924635209861,brt,2016.0
82,82,Palpa,-58.44674037640462,-34.56905738476997,brt,2016.0
83,83,Aguilar,-58.4471426320728,-34.56885970698617,brt,2016.0
84,84,Congreso,-58.46306158067749,-34.55497059319146,brt,2015.0
85,85,Céspedes,-58.44852462560887,-34.56814151474205,brt,2016.0
86,86,Zabala,-58.44901674654041,-34.56787655280695,brt,2016.0
87,87,Virrey Loreto,-58.44992879080452,-34.5673812672342,brt,2016.0
88,88,Quesada,-58.46404100623434,-34.55400087559077,brt,2015.0
89,89,Virrey Arredondo,-58.45162516690627,-34.56645907818407,brt,2016.0
90,90,Virrey del Pino,-58.45251430271486,-34.56597352396303,brt,2016.0
91,91,Mendoza,-58.457897443995535,-34.56062249520425,brt,2016.0
92,92,Iberá,-58.46484885317096,-34.553128721143786,brt,2015.0
93,93,Olazábal,-58.45872350904955,-34.55965706268093,brt,2016.0
94,94,Blanco Encalada,-58.459542141475936,-34.558726114655705,brt,2016.0
95,95,Campos Salles,-58.46599397061466,-34.551699965072885,brt,2015.0
96,96,Manuel Pedraza,-58.46635541358968,-34.551241411888356,brt,2015.0
97,97,Juana Azurduy,-58.46695315631463,-34.55049951959385,brt,2015.0
98,98,Núñez,-58.467400899435944,-34.54995266545729,brt,2015.0
99,99,Manzanares,-58.469318402808014,-34.54756154949889,brt,2015.0
100,100,Paroissien,-58.4698354723362,-34.54688648117368,brt,2015.0
101,101,Vilela,-58.470290466236065,-34.54627531264063,brt,2015.0
102,102,Besares,-58.47080598376418,-34.54558425461056,brt,2015.0
103,103,Ruiz Huidobro,-58.47132200621357,-34.544895493948154,brt,2015.0
104,104,Correa,-58.47186347873898,-34.54416416846817,brt,2015.0
105,105,Urquiza,-58.48238084190409,-34.52634934986436,brt,2015.0
106,106,Ramallo,-58.47245635968636,-34.54336062794414,brt,2015.0
107,107,Arias,-58.47301538269386,-34.54260928821719,brt,2015.0
108,108,Deheza,-58.4735671277122,-34.54188234802239,brt,2015.0
109,109,Vergara,-58.48292366698233,-34.52537311002033,brt,2015.0
110,110,Pico,-58.47419809519917,-34.541031879735456,brt,2015.0
111,111,General Paz,-58.475852058006126,-34.538855741865795,brt,2015.0
112,112,Laprida,-58.47738270879927,-34.535903124219814,brt,2015.0
113,113,Alsina,-58.47789846272423,-34.534863536713495,brt,2015.0
114,114,Álvarez,-58.47835000471642,-34.533963581186995,brt,2015.0
115,115,Lavalle,-58.47880226950714,-34.533063929640555,brt,2015.0
116,116,Las Heras,-58.4793220715503,-34.53204590141826,brt,2015.0
117,117,Güemes,-58.479804097039846,-34.53109606309113,brt,2015.0
118,118,Melo,-58.480335324148456,-34.53008631745144,brt,2015.0
119,119,Haedo,-58.48074694009874,-34.529315888572185,brt,2015.0
120,120,Santa Rosa,-58.48134172375478,-34.528215370077554,brt,2015.0
121,121,Roca,-58.48186390997722,-34.52728269081479,brt,2015.0
122,122,San Martín,-58.483489473643814,-34.52436286953625,brt,2015.0
123,123,Arenales,-58.48400399734493,-34.52342942297777,brt,2015.0
124,124,Libertad,-58.48449147158165,-34.52252266950599,brt,2015.0
125,125,Yrigoyen,-58.48504423981228,-34.52144820949722,brt,2015.0
126,126,Italia,-58.4856297997583,-34.52032700151654,brt,2015.0
127,127,Malaver,-58.48634903954756,-34.518989409075985,brt,2015.0
128,128,Tres Cruces,-58.59879603479766,-34.72471266403163,brt,2017.0
129,129,Carlos Casares,-58.59642280379377,-34.71971865572112,brt,2017.0
130,130,Marconi,-58.59219280974635,-34.71361898983261,brt,2017.0
131,131,Cristianía,-58.58689663553153,-34.70838437003428,brt,2017.0
132,132,Hospital Paroissien,-58.57631205883014,-34.6969771249364,brt,2017.0
133,133,Pedro León Gallo,-58.57373748031662,-34.69397756541523,brt,2017.0
134,134,Gral. Madariaga,-58.56948065513926,-34.69064343984134,brt,2017.0
135,135,Derqui,-58.56443350665832,-34.68765865197023,brt,2017.0
136,136,Rotonda San Justo,-58.55698284304157,-34.68424436391323,brt,2017.0
137,137,Dr. Ignacio Arieta,-58.55492714896441,-34.68279137919168,brt,2017.0
138,138,Centro de Trasbordo González Catán,-58.61645899292687,-34.75939013838763,brt,2017.0
139,139,Intendente Federico Russo,-58.61442514531727,-34.75445273369226,brt,2017.0
140,140,Recuero,-58.60893176888263,-34.74500471069509,brt,2017.0
141,141,Da Vinci,-58.611661439189476,-34.749152678654795,brt,2017.0
142,142,Salvigny,-58.60622973266442,-34.74091400435765,brt,2017.0
143,143,P. Luro,-58.60366903308186,-34.73577377947146,brt,2017.0
144,144,Hospital Materno Infantil,-58.601540379668336,-34.73045751502605,brt,2017.0
145,145,Guatemala,-58.43002686927646,-34.58185913304692,brt,2011.0
146,146,Pacífico,-58.42658837245274,-34.577603210015,brt,2011.0
147,147,Honduras,-58.43473114480781,-34.58536063778866,brt,2011.0
148,148,Aguirre,-58.44069876343872,-34.5922655366666,brt,2011.0
149,149,Av. Corrientes,-58.444300296056014,-34.59476518261869,brt,2011.0
150,150,Murillo,-58.44766512281004,-34.59710855760198,brt,2011.0
151,151,Av. Honorio Pueyrredón,-58.45203672293043,-34.6001301620002,brt,2011.0
152,152,Av. San Martín,-58.45843662575572,-34.604486830592634,brt,2011.0
153,153,Av. Donato Álvarez,-58.46269212805849,-34.60737905331317,brt,2011.0
154,154,Boyacá,-58.46786590873967,-34.61130046994225,brt,2011.0
155,155,Artigas,-58.47224809378544,-34.613837568631965,brt,2011.0
156,156,Av. Nazca,-58.47610929147045,-34.6180853226691,brt,2011.0
157,157,Concordia,-58.48082279089786,-34.62205944029195,brt,2011.0
158,158,Chivilcoy,-58.485943342786726,-34.6251362871732,brt,2011.0
159,159,Av. Segurola,-58.491096328851214,-34.62698079145599,brt,2011.0
160,160,Carrasco,-58.49484508642206,-34.629514674639246,brt,2011.0
161,161,Av. Lope de Vega,-58.50097487432102,-34.63216813398419,brt,2011.0
162,162,Cortina,-58.506711593807296,-34.63432397220794,brt,2011.0
163,163,Polideportivo Vélez Sarsfield,-58.51381723878393,-34.63345352701354,brt,2011.0
164,164,Liniers,-58.52590872134148,-34.638246095774555,brt,2011.0
165,165,Av. Córdoba,-58.438246591259215,-34.5888397020154,brt,2019.0
166,166,Marcelo T. de Alvear,-58.372529759626374,-34.595643608512134,brt,2017.0
167,167,Paraguay,-58.37201784423918,-34.59671948511358,brt,2017.0
168,168,Av. Belgrano,-58.36939442676204,-34.61173981990938,brt,2017.0
169,169,Av. Córdoba,-58.3713460185739,-34.59798981153855,brt,2017.0
170,170,Viamonte,-58.37095541238037,-34.59897668450975,brt,2017.0
171,171,México,-58.36923881508483,-34.61421517180508,brt,2017.0
172,172,Chile,-58.36917752838542,-34.61540244172519,brt,2017.0
173,173,Ricardo Rojas,-58.372971682455244,-34.59471875438921,brt,2017.0
174,174,Tucumán,-58.37065580541339,-34.600160791533014,brt,2017.0
175,175,Lavalle,-58.37043530416072,-34.6013183105127,brt,2017.0
176,176,Av. Corrientes,-58.370300913222536,-34.60254712190323,brt,2017.0
177,177,Sarmiento,-58.370215485964565,-34.603643775435835,brt,2017.0
178,178,Perón,-58.37011162053717,-34.60494692501471,brt,2017.0
179,179,Alsina,-58.36944710673697,-34.6098603367112,brt,2017.0
180,180,Moreno,-58.369432231230945,-34.610573344898626,brt,2017.0
181,181,Av. Independencia,-58.36911799782243,-34.616595323175034,brt,2017.0
182,182,Entre Ríos,-58.39199172340015,-34.629552588959776,brt,2013.0
183,183,Constitución,-58.38092815335976,-34.6276103106284,brt,2013.0
184,184,Combate de los Pozos,-58.39164467915474,-34.62724044865389,brt,2013.0
185,185,Garrahan,-58.39529019852833,-34.63017925106682,brt,2013.0
186,186,Pichincha,-58.3962075148135,-34.62797759232366,brt,2013.0
187,187,Jujuy,-58.40085793225907,-34.631712173399684,brt,2013.0
188,188,Jujuy,-58.40086181560996,-34.628663638398166,brt,2013.0
189,189,La Rioja,-58.40717352383666,-34.63112109223062,brt,2013.0
190,190,La Rioja,-58.406483464537914,-34.63384227423834,brt,2013.0
191,191,Brasil,-58.40948808712203,-34.634754221029944,brt,2013.0
192,192,Sánchez de Loria,-58.4101283847952,-34.63360216580493,brt,2013.0
193,193,Bathurst,-58.410699278292384,-34.636337002114466,brt,2013.0
194,194,Boedo,-58.41552153496745,-34.63708566456951,brt,2013.0
195,195,Larrazábal,-58.457158683926465,-34.686451713188134,brt,2013.0
196,196,Caseros,-58.41930716045033,-34.64003747467266,brt,2013.0
197,197,Av. La Plata,-58.42313967302667,-34.643097173178816,brt,2013.0
198,198,Lisandro de la Torre,-58.46353524512452,-34.69208148568188,brt,2013.0
199,199,José C. Paz,-58.41423214399377,-34.64505932685932,brt,2013.0
200,200,Grito de Asencio,-58.41587539230282,-34.647825568939446,brt,2013.0
201,201,Pompeya,-58.416353080232014,-34.65180384587179,brt,2013.0
202,202,Piedrabuena,-58.466183745307575,-34.69452766355327,brt,2013.0
203,203,Sáenz,-58.417442541790024,-34.65510829792544,brt,2013.0
204,204,Vedia,-58.42178153910588,-34.6564045515883,brt,2013.0
205,205,Pola,-58.46532091117406,-34.67868271400021,brt,2013.0
206,206,Bonorino,-58.42630994343031,-34.65856458565249,brt,2013.0
207,207,Guaminí,-58.46761894971392,-34.695854444112555,brt,2013.0
208,208,Berg,-58.42927095678286,-34.65994574901688,brt,2013.0
209,209,Varela,-58.432735339410954,-34.66154003891749,brt,2013.0
210,210,Lafuente,-58.43707362052615,-34.6635479946232,brt,2013.0
211,211,General Paz,-58.46980608781956,-34.69784525279242,brt,2013.0
212,212,Mariano Acosta,-58.44039638424137,-34.66646053102278,brt,2013.0
213,213,Lacarra,-58.44245148499306,-34.668352823624566,brt,2013.0
214,214,Parque Roca,-58.44521192967902,-34.67171545876946,brt,2013.0
215,215,Puente La Noria,-58.46185048253294,-34.7045467451845,brt,2013.0
216,216,Estadio Parque Roca,-58.44815352744227,-34.676411699258935,brt,2013.0
217,217,Escalada,-58.45296269975863,-34.68237433258256,brt,2013.0
218,218,Escalada,-58.46155811429334,-34.67533447778061,brt,2013.0
219,219,Larrazábal,-58.45749074545826,-34.68628892317645,brt,2013.0
220,220,José L. Suárez,-58.47809758401414,-34.69007811798246,brt,2013.0
221,221,Soldado de la Frontera,-58.461188229473365,-34.68985473202467,brt,2013.0
222,222,Soldado de la Frontera,-58.46106322218229,-34.68991248858697,brt,2013.0
223,223,Montiel,-58.476846019155275,-34.6889360989254,brt,2013.0
224,224,Piedrabuena,-58.47567173950824,-34.68787446609324,brt,2013.0
225,225,Lisandro de la Torre,-58.47227778783157,-34.68481185893205,brt,2013.0
226,226,Cecilia Grierson,-58.45467500593054,-34.669144468447,brt,2013.0
227,227,Laguna,-58.44891515806482,-34.664276761238526,brt,2013.0
228,228,Lafuente,-58.44259248723952,-34.65944997929758,brt,2013.0
229,229,Varela,-58.43808221323869,-34.65552368903367,brt,2013.0
230,230,San Lorenzo,-58.434484915159246,-34.65304057836177,brt,2013.0
231,231,Perito Moreno,-58.43106961170352,-34.65030974469519,brt,2013.0
232,232,Del Barco Centenera,-58.427990506397435,-34.647587694372405,brt,2013.0
233,233,Ladines,-58.51536788574974,-34.5903920538441,brt,2016.0
234,234,Mosconi,-58.511025869033006,-34.59168417096368,brt,2016.0
235,235,Cubas,-58.50734409870769,-34.593014635285044,brt,2016.0
236,236,Solano López,-58.49955311991138,-34.59592812341117,brt,2016.0
237,237,Roffo,-58.49522789002131,-34.596906207285315,brt,2016.0
238,238,Comunicaciones,-58.491189902573964,-34.59717709389518,brt,2016.0
239,239,2 de Abril,-58.486821864517054,-34.59746620683019,brt,2016.0
240,240,Agronomía,-58.48317499750277,-34.59780363442355,brt,2016.0
241,241,Empedrado,-58.480787530009266,-34.598837092137224,brt,2016.0
242,242,Argentinos Juniors,-58.47029108897334,-34.60155607326411,brt,2016.0
243,243,Donato Álvarez,-58.464923346639324,-34.60284535698199,brt,2016.0
244,244,Pappo Napolitano,-58.45924197611143,-34.604274434067044,brt,2016.0
245,245,Lavalleja,-58.28455207070337,-34.75234287998794,brt,2019.0
246,246,Los Andes,-58.308380584556986,-34.71294805497789,brt,2019.0
247,247,Montevideo,-58.30485286229779,-34.716382498764894,brt,2019.0
248,248,Cerrito,-58.30368266614799,-34.720155982502625,brt,2019.0
249,249,Zapiola,-58.302117294634584,-34.72528090700532,brt,2019.0
250,250,Fornabaio,-58.28410756440148,-34.7529030099642,brt,2019.0
251,251,Esquiú,-58.28225258403103,-34.75529824421676,brt,2019.0
252,252,Centro Comercial,-58.278487750402846,-34.76010158101793,brt,2019.0
253,253,General Savio,-58.27468343009451,-34.76496862629793,brt,2019.0
254,254,República de Francia,-58.27195374077823,-34.768468357790724,brt,2019.0
255,255,Hospital el Cruce,-58.26907187028222,-34.77154240323344,brt,2019.0
256,256,UNAJ,-58.26745130266001,-34.77366008308732,brt,2019.0
257,257,Cabral,-58.265006089380705,-34.77690908837654,brt,2019.0
258,258,Yrigoyen,-58.38125439372895,-34.60983470933252,brt,2013.0
259,259,Alsina,-58.38116544135872,-34.61095992845478,brt,2013.0
260,260,Córdoba,-58.38184952918952,-34.59940579465848,brt,2013.0
261,261,Santa Fe,-58.38217025097288,-34.5955870252168,brt,2013.0
262,262,Marcelo T. de Alvear,-58.38201268675272,-34.59699495248187,brt,2013.0
263,263,Paraguay,-58.38190740115371,-34.598168552857864,brt,2013.0
264,264,Teatro Colón,-58.381787986536295,-34.60054531672263,brt,2013.0
265,265,Obelisco Norte,-58.38171866120352,-34.60188380598754,brt,2013.0
266,266,Obelisco Sur,-58.381540537529546,-34.60529346116121,brt,2013.0
267,267,Juan D. Perón,-58.38146603553638,-34.606493901910525,brt,2013.0
268,268,Mitre,-58.38139926952704,-34.60766782323051,brt,2013.0
269,269,Belgrano,-58.38107105835384,-34.6133960245679,brt,2013.0
270,270,Venezuela,-58.38100606183497,-34.61452043072694,brt,2013.0
271,271,México,-58.380982769803296,-34.61549647211488,brt,2013.0
272,272,Chile,-58.380931872912754,-34.61674937256953,brt,2013.0
273,273,Independencia,-58.38088373165348,-34.6178744911944,brt,2013.0
274,274,Estados Unidos,-58.380841361845796,-34.61887820333129,brt,2013.0
275,275,Policlínico,-57.9213603898547,-34.92537929594972,light_rail,2013.0
276,276,Diagonal 73,-57.919112823988954,-34.92003969503036,light_rail,2013.0
277,277,Periodismo,-57.924089277733955,-34.91237871784125,light_rail,2013.0
278,278,Medicina,-57.92813105192589,-34.908809057955146,light_rail,2013.0
279,279,Informática,-57.93774209404758,-34.90319831355811,light_rail,2013.0
280,280,Arquitectura,-57.94283099323066,-34.904816432544585,light_rail,2013.0
281,281,La Plata,-57.94977935010645,-34.90403727571648,light_rail,2013.0
282,282,Delta,-58.576875290048534,-34.41849143823146,light_rail,1995.0
283,283,Borges,-58.48476960865011,-34.50850101337656,light_rail,1995.0
284,284,Juan Anchorena,-58.48123050026712,-34.48911429305742,light_rail,1995.0
285,285,San Isidro R,-58.50869150375196,-34.465198637723965,light_rail,1995.0
286,286,Marina Nueva,-58.538924107425444,-34.444564575741985,light_rail,1995.0
287,287,Canal San Fernando,-58.562692563812774,-34.43009697734602,light_rail,1995.0
288,288,Avenida Maipú,-58.48833930509092,-34.51396688188965,light_rail,1995.0
289,289,Libertador,-58.4820358629121,-34.50231922553563,light_rail,1995.0
290,290,Las Barrancas,-58.492868196565766,-34.47243663261384,light_rail,1995.0
291,291,Punta Chica,-58.52385231417945,-34.45048057403649,light_rail,1995.0
292,292,San Fernando R,-58.55393106633282,-34.43751984697326,light_rail,1995.0
293,293,Pedro Arata,-58.47595637891693,-34.59247380996204,commuter_rail,1888.0
294,294,José Artigas,-58.46629188813788,-34.590103224486505,commuter_rail,1888.0
295,295,Antonio Devoto,-58.510567128863414,-34.59559809656494,commuter_rail,1888.0
296,296,Rubén Darío,-58.629269516247525,-34.58755983430422,commuter_rail,1888.0
297,297,Pablo Podestá,-58.6070959635486,-34.588381035434274,commuter_rail,1888.0
298,298,José María Bosch,-58.57196036762716,-34.58999939464494,commuter_rail,1888.0
299,299,Tropezón,-58.55945582381918,-34.5918925837334,commuter_rail,1888.0
300,300,Lourdes,-58.54698773176212,-34.593782310698984,commuter_rail,1888.0
301,301,Coronel Lynch,-58.52436298731681,-34.597215074331686,commuter_rail,1888.0
302,302,Sargento Barrufaldi,-58.65979524475248,-34.562751576161375,commuter_rail,1914.0
303,303,Doctor Francisco Beiró,-58.493984308207196,-34.593115568471084,commuter_rail,1888.0
304,304,Jorge Newbery,-58.62060563403004,-34.587872803164366,commuter_rail,1888.0
305,305,Fernández Moreno,-58.535436421551594,-34.595533368697566,commuter_rail,1888.0
306,306,El Libertador,-58.503369468826136,-34.59450525500446,commuter_rail,1888.0
307,307,Martín Coronado,-58.590789477521746,-34.58896764191965,commuter_rail,1888.0
308,308,Campo de Mayo,-58.68639140708477,-34.5433403609629,commuter_rail,1914.0
309,309,Teniente Agneta,-58.67844964415859,-34.54911927001957,commuter_rail,1914.0
310,310,Capitán Lozano,-58.66938096603431,-34.55564347574446,commuter_rail,1914.0
311,311,Juan B. de La Salle,-58.64516260653486,-34.57364042512949,commuter_rail,1914.0
312,312,Ejército de los Andes,-58.64034798244912,-34.580178456696686,commuter_rail,1914.0
313,313,Sargento Cabral,-58.69552742170875,-34.53677047141827,commuter_rail,1974.0
314,314,Federico Lacroze,-58.45565942781423,-34.586768592215094,commuter_rail,1888.0
315,315,General Lemos,-58.70083969458822,-34.532927904895736,commuter_rail,1974.0
316,316,Villa Crespo,-58.4467196357067,-34.59259952085958,commuter_rail,2023.0
317,317,Villa del Parque,-58.49405093551699,-34.60140000640861,commuter_rail,1907.0
318,318,Devoto,-58.51278311038524,-34.6026774308495,commuter_rail,1889.0
319,319,Palermo,-58.426390831929275,-34.57838593213791,commuter_rail,1888.0
320,320,Sáenz Peña,-58.52794150756155,-34.60319649814653,commuter_rail,1907.0
321,321,Hurlingham,-58.63240660631219,-34.59105312481854,commuter_rail,1893.0
322,322,Bella Vista,-58.684692383599014,-34.563791402438746,commuter_rail,1891.0
323,323,José C. Paz,-58.75028750659715,-34.519063958620514,commuter_rail,1906.0
324,324,Caseros,-58.56448722086817,-34.6045728428943,commuter_rail,1888.0
325,325,Retiro,-58.37323920705825,-34.58931332486238,commuter_rail,1912.0
326,326,Sol y Verde,-58.79770741745364,-34.50398446177167,commuter_rail,2009.0
327,327,Villa Astolfi,-58.87695810306832,-34.47866590632948,commuter_rail,1950.0
328,328,Santos Lugares,-58.540806312897075,-34.60368537708252,commuter_rail,1906.0
329,329,El Palomar,-58.596136274200234,-34.60492999948794,commuter_rail,1908.0
330,330,William Morris,-58.656340337710944,-34.57859668331388,commuter_rail,1958.0
331,331,San Miguel,-58.713450493044704,-34.544056513817026,commuter_rail,1896.0
332,332,Dr. Domingo Cabred,-59.07589661536693,-34.487935430008555,commuter_rail,2014.0
333,333,Muñiz,-58.703584942236546,-34.551164491818,commuter_rail,1888.0
334,334,Presidente Derqui,-58.83935121392551,-34.490702592376834,commuter_rail,1901.0
335,335,Pilar,-58.908258951896755,-34.4686892399815,commuter_rail,1888.0
336,336,Manzanares,-59.00731160531612,-34.45253217347174,commuter_rail,2014.0
337,337,La Paternal,-58.4667363245745,-34.596860417650106,commuter_rail,2022.0
338,338,Matheu,-58.82981557912791,-34.38280507645203,commuter_rail,1898.0
339,339,Maquista Savio,-58.772075237895976,-34.40684888674553,commuter_rail,1960.0
340,340,Garín,-58.73659850841753,-34.4216064313159,commuter_rail,1892.0
341,341,López Camelo,-58.67752239969795,-34.44685342495952,commuter_rail,1892.0
342,342,El Talar,-58.646246262740334,-34.46268930950894,commuter_rail,1892.0
343,343,Dr. Schweitzer,-58.574361311150504,-34.47204842465907,commuter_rail,1892.0
344,344,Kilómetro 83,-58.97729964261421,-34.16026438692362,commuter_rail,1876.0
345,345,Ingeniero Otamendi,-58.89661300253188,-34.22183046710947,commuter_rail,1876.0
346,346,Zárate,-59.03803234956308,-34.0975461818748,commuter_rail,1876.0
347,347,Campana,-58.95855156888541,-34.15675014890851,commuter_rail,1876.0
348,348,Río Luján,-58.890227072998314,-34.277961474673276,commuter_rail,1876.0
349,349,Ingeniero Maschwitz,-58.73634250460428,-34.3829657745293,commuter_rail,1876.0
350,350,General Pacheco,-58.62013545863971,-34.45581507422111,commuter_rail,1876.0
351,351,Escobar,-58.79508535118474,-34.34957379147659,commuter_rail,1877.0
352,352,Benavídez,-58.684631534608144,-34.4092627649876,commuter_rail,1876.0
353,353,Bancalari,-58.602889656187685,-34.47970468770192,commuter_rail,1876.0
354,354,Tigre,-58.58171275303463,-34.42351268603137,commuter_rail,1996.0
355,355,Retiro,-58.37514493655707,-34.59104511969873,commuter_rail,1915.0
356,356,Victoria,-58.540477452948,-34.45646342393778,commuter_rail,1892.0
357,357,La Lucila,-58.48858279198403,-34.49750237207516,commuter_rail,1933.0
358,358,Virreyes,-58.5514900930702,-34.45008182738517,commuter_rail,1938.0
359,359,Beccar,-58.52636847649552,-34.46091671969247,commuter_rail,1933.0
360,360,Acassuso,-58.50386123206306,-34.47996638351663,commuter_rail,1933.0
361,361,Rivadavia,-58.4681787929528,-34.53617656158421,commuter_rail,1863.0
362,362,Dr. Cetrángolo,-58.49413315955759,-34.52315546329811,commuter_rail,1951.0
363,363,Carupá,-58.56840618844481,-34.43675309925232,commuter_rail,1865.0
364,364,San Fernando,-58.558649583389354,-34.44432274555412,commuter_rail,1864.0
365,365,Victoria,-58.540918513292894,-34.45617535931494,commuter_rail,1891.0
366,366,San Isidro,-58.513936373131216,-34.4716291326955,commuter_rail,1864.0
367,367,Martínez,-58.49718558136941,-34.48798984234243,commuter_rail,1871.0
368,368,Olivos,-58.48033959005028,-34.50841016031651,commuter_rail,1864.0
369,369,Vicente López,-58.47313788936367,-34.524026765181205,commuter_rail,1864.0
370,370,Núñez,-58.46268736933921,-34.54859200387331,commuter_rail,1873.0
371,371,José León Suárez,-58.576721250904924,-34.534179208146746,commuter_rail,1932.0
372,372,Villa Ballester,-58.55599642007677,-34.55103301288711,commuter_rail,1895.0
373,373,San Andrés,-58.540610225411214,-34.56360839269826,commuter_rail,1876.0
374,374,General Urquiza,-58.48783854844416,-34.574722388403174,commuter_rail,1889.0
375,375,Miguelete,-58.51619833150163,-34.58120662806738,commuter_rail,1876.0
376,376,Chilavert,-58.56692598732724,-34.54218999646124,commuter_rail,1876.0
377,377,Malaver,-58.547853459815954,-34.55743983707977,commuter_rail,1876.0
378,378,San Martín,-58.53170963211113,-34.57361661367066,commuter_rail,1876.0
379,379,Dr. Luis María Drago,-58.478940978859015,-34.56839890311198,commuter_rail,1933.0
380,380,Pueyrredón,-58.501744447282434,-34.580490368897316,commuter_rail,1876.0
381,381,Belgrano R,-58.46244866802037,-34.56782580909735,commuter_rail,1876.0
382,382,Ministro Carranza,-58.43440756845926,-34.57546328245298,commuter_rail,1876.0
383,383,Luis María Saavedra,-58.4870240652031,-34.554113120333,commuter_rail,1891.0
384,384,Florida,-58.494407341161974,-34.52951519115182,commuter_rail,1891.0
385,385,Colegiales,-58.448181541649134,-34.57302795860363,commuter_rail,1898.0
386,386,3 de Febrero,-58.42518865357626,-34.571866460022555,commuter_rail,1915.0
387,387,Coghlan,-58.475119366528716,-34.565330389464116,commuter_rail,1891.0
388,388,Juan B. Justo,-58.49470616069202,-34.54231947685408,commuter_rail,1931.0
389,389,Bartolomé Mitre,-58.48906773797644,-34.514830374547785,commuter_rail,1891.0
390,390,Zelaya,-58.869481040501555,-34.370124230648045,commuter_rail,1892.0
391,391,Capilla del Señor,-59.10246403117114,-34.286336445375085,commuter_rail,1892.0
392,392,Los Cardales,-58.98748688672295,-34.33089184965772,commuter_rail,1903.0
393,393,Lisandro de la Torre,-58.43586480272448,-34.562590632309075,commuter_rail,2019.0
394,394,Belgrano C,-58.44947362974356,-34.55853930971004,commuter_rail,2019.0
395,395,Liniers,-58.52591439391439,-34.63883348270534,commuter_rail,1872.0
396,396,General Rodríguez,-58.95299060671233,-34.60888282930599,commuter_rail,1864.0
397,397,Universidad de Luján,-59.087512336845435,-34.57738339629269,commuter_rail,1984.0
398,398,Luján,-59.105107975286685,-34.5777572158616,commuter_rail,1864.0
399,399,Villa Luro,-58.50093520933922,-34.6360996561726,commuter_rail,1911.0
400,400,Ciudadela,-58.54102017467348,-34.63993871646498,commuter_rail,1910.0
401,401,Ramos Mejía,-58.56437953838406,-34.640478351185365,commuter_rail,1858.0
402,402,La Fraternidad,-58.99803443020518,-34.598363291984604,commuter_rail,1864.0
403,403,Lezica y Torrezuri,-59.05695181147529,-34.584571446866384,commuter_rail,1864.0
404,404,Jáuregui,-59.173629317695344,-34.60066158855176,commuter_rail,1884.0
405,405,Olivera,-59.25540166888413,-34.62794644901348,commuter_rail,1864.0
406,406,Gowland,-59.352999210596764,-34.647840937807686,commuter_rail,1888.0
407,407,Empalme Lobos,-59.0909857215718,-35.151617741784996,commuter_rail,1871.0
408,408,Lobos,-59.09275976862641,-35.18479593181276,commuter_rail,1871.0
409,409,Mercedes,-59.4322410741576,-34.65767723652789,commuter_rail,1864.0
410,410,Zapiola,-59.04200742416698,-35.05844298767401,commuter_rail,1871.0
411,411,Speratti,-58.99966737379468,-35.001839556927145,commuter_rail,1871.0
412,412,Las Heras,-58.94454051154989,-34.92802576364565,commuter_rail,1871.0
413,413,Hornos,-58.917896239352785,-34.892324526753015,commuter_rail,1884.0
414,414,Zamudio,-58.89221820344302,-34.857899336903984,commuter_rail,1871.0
415,415,Marcos Paz,-58.83658108441683,-34.7830922609435,commuter_rail,1870.0
416,416,Mariano Acosta,-58.79302331811266,-34.72439730357695,commuter_rail,1910.0
417,417,Agustín Ferrari,-58.77941460111991,-34.706056388567646,commuter_rail,1870.0
418,418,"Kilómetro 34,5",-58.76019398001776,-34.68011411629455,commuter_rail,1870.0
419,419,Francisco Álvarez,-58.85527005113873,-34.63224282017066,commuter_rail,1923.0
420,420,Once de Septiembre,-58.407458917977785,-34.608442109412735,commuter_rail,1857.0
421,421,Flores,-58.46567577462284,-34.62772965886758,commuter_rail,1857.0
422,422,Floresta,-58.48140451731811,-34.632537259651876,commuter_rail,1857.0
423,423,Caballito,-58.44360455181172,-34.619165527052246,commuter_rail,1857.0
424,424,Morón,-58.619411380126536,-34.648240798820055,commuter_rail,1859.0
425,425,Castelar,-58.641987610903655,-34.65198957555494,commuter_rail,1913.0
426,426,Ituzaingó,-58.6665748058772,-34.65974435830555,commuter_rail,1872.0
427,427,San Antonio de Padua,-58.698648710397606,-34.665538575090004,commuter_rail,1923.0
428,428,Merlo,-58.727771096738635,-34.66453449307908,commuter_rail,1860.0
429,429,Paso del Rey,-58.762100564759,-34.6582261436864,commuter_rail,1938.0
430,430,Moreno,-58.78984300424283,-34.65051366622797,commuter_rail,1860.0
431,431,Haedo,-58.592022161946765,-34.64459182334102,commuter_rail,1886.0
432,432,Ingeniero Pablo Marín,-58.89336111638106,-34.62277142513053,commuter_rail,1864.0
433,433,Las Malvinas,-58.92172875962336,-34.61617176687064,commuter_rail,1864.0
434,434,Retiro,-58.37409101496387,-34.59010547199625,commuter_rail,1912.0
435,435,Tierras Altas,-58.740085492652696,-34.47871145589271,commuter_rail,1988.0
436,436,Del Viso,-58.79680746733092,-34.45337720116645,commuter_rail,1909.0
437,437,Pablo Nogués,-58.70636287964814,-34.49374498593186,commuter_rail,1909.0
438,438,Vicealmirante Montes,-58.62002827614231,-34.504130038765474,commuter_rail,1909.0
439,439,Villa de Mayo,-58.680682343997105,-34.50337256690854,commuter_rail,1913.0
440,440,Don Torcuato,-58.641841163057094,-34.50269282781579,commuter_rail,1909.0
441,441,Villa Adelina,-58.546218863697405,-34.52368098206969,commuter_rail,1909.0
442,442,Munro,-58.52431437541503,-34.53144279892901,commuter_rail,1912.0
443,443,Villa Rosa,-58.8716377860887,-34.41651966954878,commuter_rail,1909.0
444,444,Manuel Alberti,-58.7750438124681,-34.4631089035375,commuter_rail,1965.0
445,445,Tortuguitas,-58.7579569701048,-34.470735835202454,commuter_rail,1947.0
446,446,Grand Bourg,-58.72519461390844,-34.4853483047726,commuter_rail,1909.0
447,447,Los Polvorines,-58.694772853012594,-34.4989166022358,commuter_rail,1909.0
448,448,Adolfo Sourdeaux,-58.66644695008851,-34.50299514623151,commuter_rail,1955.0
449,449,Boulogne Sur Mer,-58.564858738663006,-34.508964593650965,commuter_rail,1909.0
450,450,Carapachay,-58.53771913032446,-34.52875775371225,commuter_rail,1930.0
451,451,Florida,-58.5130719407167,-34.537149035100036,commuter_rail,1912.0
452,452,Miguel Manuel Padilla,-58.50063414167728,-34.54345660674089,commuter_rail,1912.0
453,453,Ciudad Universitaria,-58.446555035507004,-34.5438041563882,commuter_rail,2015.0
454,454,Aristóbulo del Valle,-58.47730777209719,-34.5372667144452,commuter_rail,1912.0
455,455,Panamericana,-58.82412018248861,-34.43922054868512,commuter_rail,
456,456,Empalme Lobos,-59.0909857215718,-35.151617741784996,commuter_rail,1871.0
457,457,Lobos,-59.09275976862641,-35.18479593181276,commuter_rail,1871.0
458,458,Hipólito Yrigoyen,-58.378910855852176,-34.65360371878185,commuter_rail,1866.0
459,459,Plaza Constitución,-58.38062624485009,-34.628833068093485,commuter_rail,1865.0
460,460,Temperley,-58.396285198710885,-34.776039053499844,commuter_rail,1871.0
461,461,Lomas de Zamora,-58.39729288188354,-34.76104576602497,commuter_rail,1865.0
462,462,Alejandro Korn,-58.373750573612114,-34.981023992470654,commuter_rail,1865.0
463,463,Tolosa,-57.96807874006787,-34.89098614500584,commuter_rail,1883.0
464,464,Darío Santillán y Maximiliano Kosteki,-58.37664905365066,-34.66204168487568,commuter_rail,1865.0
465,465,Sarandí,-58.345115463198084,-34.678839469087265,commuter_rail,1872.0
466,466,Gerli,-58.38274732926794,-34.68609520500135,commuter_rail,1910.0
467,467,Lanús,-58.390675888209074,-34.70764384645708,commuter_rail,1868.0
468,468,Remedios de Escalada,-58.393636887634294,-34.72705391886952,commuter_rail,1868.0
469,469,Banfield,-58.39534456856584,-34.74318018642511,commuter_rail,1873.0
470,470,Guernica,-58.38057801248314,-34.91795084623992,commuter_rail,1888.0
471,471,La Plata,-57.94997257822797,-34.90416075437674,commuter_rail,1906.0
472,472,Adrogué,-58.394279242359175,-34.79740623023402,commuter_rail,1872.0
473,473,Burzaco,-58.39139403874837,-34.825075966749814,commuter_rail,1888.0
474,474,Longchamps,-58.387227717674264,-34.85960708800601,commuter_rail,1910.0
475,475,Glew,-58.38378608752277,-34.88831199505677,commuter_rail,1865.0
476,476,Donselaar,-58.290420533562084,-35.070348607730274,commuter_rail,1865.0
477,477,Coronel Brandsen,-58.23188127013695,-35.16801173513268,commuter_rail,1865.0
478,478,Altamirano,-58.15125121921244,-35.36109045557809,commuter_rail,1865.0
479,479,Gándara,-58.09401077910698,-35.44944889507488,commuter_rail,1865.0
480,480,Chascomús,-57.98242164894312,-35.57899825353,commuter_rail,1865.0
481,481,Jeppener,-58.1982197824545,-35.27761940603295,commuter_rail,1865.0
482,482,Ezpeleta,-58.234117621192695,-34.75191455724391,commuter_rail,1889.0
483,483,Berazategui,-58.20875703066591,-34.76397968363534,commuter_rail,1872.0
484,484,Plátanos,-58.17083319375679,-34.782320568782296,commuter_rail,1872.0
485,485,Hudson,-58.15552627793119,-34.79099611919698,commuter_rail,1872.0
486,486,Villa Elisa,-58.07501594887336,-34.84970369874253,commuter_rail,1884.0
487,487,City Bell,-58.0444818061637,-34.86457482538544,commuter_rail,1914.0
488,488,Manuel B. Gonnet,-58.01055656094972,-34.87994247070761,commuter_rail,1889.0
489,489,Ringuelet,-57.996242216666346,-34.88148520896717,commuter_rail,1886.0
490,490,Pereyra,-58.094665070145645,-34.83655981828059,commuter_rail,1872.0
491,491,Villa Domínico,-58.325423853216975,-34.69147810684601,commuter_rail,1909.0
492,492,Wilde,-58.31119561302967,-34.697567900218665,commuter_rail,1888.0
493,493,Don Bosco,-58.29626879658515,-34.70331897060207,commuter_rail,1927.0
494,494,Bernal,-58.28043154278262,-34.70935877428989,commuter_rail,1878.0
495,495,Quilmes,-58.26086720125474,-34.724392110035154,commuter_rail,1872.0
496,496,Monte Grande,-58.46972388751297,-34.814502866959415,commuter_rail,1913.0
497,497,Luis Guillón,-58.44854746509459,-34.80326496824997,commuter_rail,1885.0
498,498,Lavallol,-58.430091295765735,-34.79714557660003,commuter_rail,1885.0
499,499,Turdera,-58.408065765726434,-34.79511175992314,commuter_rail,1885.0
500,500,Intendente Pedro P. Turner,-58.47466231972548,-34.73339133111717,commuter_rail,1971.0
501,501,Villa España,-58.19527064819597,-34.77505711420906,commuter_rail,1911.0
502,502,Cañuelas,-58.754449921654526,-35.05939749536497,commuter_rail,1885.0
503,503,Dr. Ricardo Levene,-58.72396897714334,-35.021791014391376,commuter_rail,1885.0
504,504,Kloosterman,-58.68979890030117,-34.98642546443428,commuter_rail,1885.0
505,505,Zeballos,-58.25672746712864,-34.81099763270648,commuter_rail,1911.0
506,506,Alejandro Petión,-58.67464003739515,-34.9776492535802,commuter_rail,1885.0
507,507,Vicente Casares,-58.64792925722247,-34.962260395403455,commuter_rail,1885.0
508,508,Bosques,-58.23044609441553,-34.819478731275886,commuter_rail,1883.0
509,509,Máximo Paz,-58.620585908934515,-34.936378168126005,commuter_rail,1885.0
510,510,Carlos Spegazzini,-58.594278924679585,-34.909961720987226,commuter_rail,1885.0
511,511,Tristán Suárez,-58.56790307949878,-34.88938404895361,commuter_rail,1885.0
512,512,Agustín De Elía,-58.505939045111035,-34.70992995864605,commuter_rail,1875.0
513,513,Unión Ferroviaria,-58.543396776717685,-34.87024307632745,commuter_rail,1885.0
514,514,Ingeniero Dante Ardigó,-58.302541662661525,-34.808889393768126,commuter_rail,1970.0
515,515,Ezeiza,-58.52281748016533,-34.85414337625113,commuter_rail,1885.0
516,516,El Jagüel,-58.4962527615793,-34.83333721140208,commuter_rail,1965.0
517,517,Florencio Varela,-58.27409781630274,-34.811142045438814,commuter_rail,1883.0
518,518,La Tablada,-58.5281626494034,-34.692982074611095,commuter_rail,1875.0
519,519,Claypole,-58.33811186841868,-34.80120695642858,commuter_rail,1883.0
520,520,Rafael Calzada,-58.35905267749277,-34.796718089803726,commuter_rail,1883.0
521,521,San Justo,-58.555621544459214,-34.67399599761981,commuter_rail,1886.0
522,522,Sourigues,-58.213076158264855,-34.80715481127373,commuter_rail,1939.0
523,523,José Mármol,-58.38129976634288,-34.79190821226856,commuter_rail,1875.0
524,524,Ranelagh,-58.20324291019966,-34.78942431502421,commuter_rail,1911.0
525,525,Hospital Español,-58.40752058219027,-34.78621734530725,commuter_rail,1940.0
526,526,Santa Catalina,-58.43749473674373,-34.78021753317704,commuter_rail,1875.0
527,527,Juan XXIII,-58.44410041194821,-34.77138788295507,commuter_rail,1932.0
528,528,Kilómetro 34,-58.46504771378565,-34.74341199822329,commuter_rail,1963.0
529,529,Ingeniero Santiago Brian,-58.57290169793809,-34.658195887550875,commuter_rail,1886.0
530,530,Haedo,-58.591892951819176,-34.645002156894044,commuter_rail,1886.0
531,531,Juan María Gutiérrez,-58.18560337676169,-34.83401925541962,commuter_rail,1883.0
532,532,Santa Sofía,-58.21340066157694,-34.82500929721735,commuter_rail,1883.0
533,533,Uribelarrea,-58.8984450120404,-35.11538685901585,commuter_rail,2019.0
534,534,Monte,-58.81757027465409,-35.436684695317545,commuter_rail,2019.0
535,535,Abbott,-58.80284292125134,-35.281313176757905,commuter_rail,2019.0
536,536,La Noria,-58.78816981687336,-35.16524555083791,commuter_rail,2019.0
537,537,Villa Madero,-58.49167724457622,-34.6838985994516,commuter_rail,1908.0
538,538,Villa Soldati,-58.44092041491918,-34.66223084267463,commuter_rail,1908.0
539,539,Marinos del Crucero General Belgrano,-58.73160583089232,-34.709080686485635,commuter_rail,1985.0
540,540,González Catán,-58.64678773823722,-34.77166082327382,commuter_rail,1908.0
541,541,Tapiales,-58.51166240132703,-34.70241880570872,commuter_rail,1908.0
542,542,Mendeville,-58.52436566958596,-34.712418455440655,commuter_rail,1909.0
543,543,José Ingenieros,-58.537148686402105,-34.710792647163814,commuter_rail,1909.0
544,544,Marinos del Fournier,-58.50745582749913,-34.69012298504579,commuter_rail,1908.0
545,545,Aldo Bonzi,-58.5144026262588,-34.710773087297184,commuter_rail,1909.0
546,546,J. Villegas,-58.55191702046102,-34.70899020697014,commuter_rail,1909.0
547,547,Lugano,-58.47702183523228,-34.67720767296419,commuter_rail,1909.0
548,548,Isidro Casanova,-58.58752216490387,-34.70454520559398,commuter_rail,1909.0
549,549,Rafael Castillo,-58.62628252101021,-34.699701313567644,commuter_rail,1909.0
550,550,Merlo Gómez,-58.647553362963635,-34.69703510516275,commuter_rail,1909.0
551,551,Presidente Illia,-58.44889989569443,-34.66557197300914,commuter_rail,1908.0
552,552,María Eva Duarte,-58.60171300604152,-34.75640229925038,commuter_rail,1999.0
553,553,Laferrere,-58.58451967443341,-34.75082329156669,commuter_rail,1913.0
554,554,Libertad,-58.68649002884753,-34.69214197995113,commuter_rail,1909.0
555,555,Ingeniero Castello,-58.50596560810419,-34.71027295008304,commuter_rail,1908.0
556,556,Querandí,-58.53050505846568,-34.722287439099276,commuter_rail,1908.0
557,557,Independencia,-58.61559895579296,-34.76033724222252,commuter_rail,1981.0
558,558,Buenos Aires,-58.38991693762907,-34.64600661996504,commuter_rail,999999.0
559,559,Constitución,-58.3811065645115,-34.63066349036034,commuter_rail,999999.0
560,560,Dr. A. Sáenz,-58.41633944216629,-34.64909751090013,commuter_rail,2019.0
561,561,20 de Junio,-58.73797901744153,-34.780221943650254,commuter_rail,2019.0
562,562,Villa Crespo,-58.4467196357067,-34.59259952085958,None,2023.0
563,563,Sáenz,-58.41772579034085,-34.64947650634418,None,999999.0
564,564,Lavalleja,-58.28455207070337,-34.75234287998794,None,2019.0
565,565,Matheu,-58.82981557912791,-34.38280507645203,None,1898.0
566,566,Maquista Savio,-58.772075237895976,-34.40684888674553,None,1960.0
567,567,Garín,-58.73659850841753,-34.4216064313159,None,1892.0
568,568,López Camelo,-58.67752239969795,-34.44685342495952,None,1892.0
569,569,El Talar,-58.646246262740334,-34.46268930950894,None,1892.0
570,570,Dr. Schweitzer,-58.574361311150504,-34.47204842465907,None,1892.0
571,571,Liniers,-58.52591439391439,-34.63883348270534,None,1872.0
572,572,Delta,-58.576875290048534,-34.41849143823146,None,1995.0
573,573,General Rodríguez,-58.95299060671233,-34.60888282930599,None,1864.0
574,574,Universidad de Luján,-59.087512336845435,-34.57738339629269,None,1984.0
575,575,Luján,-59.105107975286685,-34.5777572158616,None,1864.0
576,576,Villa Luro,-58.50093520933922,-34.6360996561726,None,1911.0
577,577,Ciudadela,-58.54102017467348,-34.63993871646498,None,1910.0
578,578,Ramos Mejía,-58.56437953838406,-34.640478351185365,None,1858.0
579,579,Borges,-58.48476960865011,-34.50850101337656,None,1995.0
580,580,Juan Anchorena,-58.48123050026712,-34.48911429305742,None,1995.0
581,581,San Isidro R,-58.50869150375196,-34.465198637723965,None,1995.0
582,582,Marina Nueva,-58.538924107425444,-34.444564575741985,None,1995.0
583,583,Canal San Fernando,-58.562692563812774,-34.43009697734602,None,1995.0
584,584,Avenida Maipú,-58.48833930509092,-34.51396688188965,None,1995.0
585,585,Libertador,-58.4820358629121,-34.50231922553563,None,1995.0
586,586,Las Barrancas,-58.492868196565766,-34.47243663261384,None,1995.0
587,587,Punta Chica,-58.52385231417945,-34.45048057403649,None,1995.0
588,588,San Fernando R,-58.55393106633282,-34.43751984697326,None,1995.0
589,589,La Fraternidad,-58.99803443020518,-34.598363291984604,None,1864.0
590,590,Lezica y Torrezuri,-59.05695181147529,-34.584571446866384,None,1864.0
591,591,Balbastro,-58.456299890832994,-34.64871586854532,None,1987.0
592,592,Pedro Arata,-58.47595637891693,-34.59247380996204,None,1888.0
593,593,José Artigas,-58.46629188813788,-34.590103224486505,None,1888.0
594,594,Antonio Devoto,-58.510567128863414,-34.59559809656494,None,1888.0
595,595,Rubén Darío,-58.629269516247525,-34.58755983430422,None,1888.0
596,596,Pablo Podestá,-58.6070959635486,-34.588381035434274,None,1888.0
597,597,José María Bosch,-58.57196036762716,-34.58999939464494,None,1888.0
598,598,Tropezón,-58.55945582381918,-34.5918925837334,None,1888.0
599,599,Lourdes,-58.54698773176212,-34.593782310698984,None,1888.0
600,600,Coronel Lynch,-58.52436298731681,-34.597215074331686,None,1888.0
601,601,Kilómetro 83,-58.97729964261421,-34.16026438692362,None,1876.0
602,602,Ingeniero Otamendi,-58.89661300253188,-34.22183046710947,None,1876.0
603,603,Sargento Barrufaldi,-58.65979524475248,-34.562751576161375,None,1914.0
604,604,Doctor Francisco Beiró,-58.493984308207196,-34.593115568471084,None,1888.0
605,605,Jorge Newbery,-58.62060563403004,-34.587872803164366,None,1888.0
606,606,Fernández Moreno,-58.535436421551594,-34.595533368697566,None,1888.0
607,607,El Libertador,-58.503369468826136,-34.59450525500446,None,1888.0
608,608,Martín Coronado,-58.590789477521746,-34.58896764191965,None,1888.0
609,609,Zárate,-59.03803234956308,-34.0975461818748,None,1876.0
610,610,Campana,-58.95855156888541,-34.15675014890851,None,1876.0
611,611,Río Luján,-58.890227072998314,-34.277961474673276,None,1876.0
612,612,Ingeniero Maschwitz,-58.73634250460428,-34.3829657745293,None,1876.0
613,613,General Pacheco,-58.62013545863971,-34.45581507422111,None,1876.0
614,614,Escobar,-58.79508535118474,-34.34957379147659,None,1877.0
615,615,Benavídez,-58.684631534608144,-34.4092627649876,None,1876.0
616,616,Bancalari,-58.602889656187685,-34.47970468770192,None,1876.0
617,617,Villa Madero,-58.49167724457622,-34.6838985994516,None,1908.0
618,618,Intendente Saguier,-58.461852324410444,-34.64306288348926,None,1987.0
619,619,Mariano Acosta,-58.45654715646777,-34.65437974384756,None,1987.0
620,620,Ana María Janer,-58.44991234270943,-34.65959057233384,None,1987.0
621,621,Cecilia Grierson,-58.45769456051625,-34.67232720607125,None,1987.0
622,622,Escalada,-58.46005095133448,-34.67445371092862,None,1987.0
623,623,Larrazábal,-58.46532460936515,-34.68059937539099,None,1987.0
624,624,Gabino Ezeiza,-58.45823696127458,-34.685861898543294,None,1987.0
625,625,Ana Díaz,-58.46680709732453,-34.680514509411594,None,1987.0
626,626,Centro Cívico,-58.46510250089386,-34.683567734149335,None,1987.0
627,627,Villa Soldati,-58.44092041491918,-34.66223084267463,None,1908.0
628,628,Somellera,-58.45378271083462,-34.65653580407197,None,1987.0
629,629,Parque de la Ciudad,-58.45426332703083,-34.66901849769002,None,1987.0
630,630,Pola,-58.46443441630648,-34.678090916478475,None,2006.0
631,631,Nicolás Descalzi,-58.46236199258477,-34.68282766342487,None,1987.0
632,632,General Savio,-58.46093536482354,-34.689715522467516,None,1987.0
633,633,Tigre,-58.58171275303463,-34.42351268603137,None,1996.0
634,634,Retiro,-58.37514493655707,-34.59104511969873,None,1915.0
635,635,Marinos del Crucero General Belgrano,-58.73160583089232,-34.709080686485635,None,1985.0
636,636,Villa del Parque,-58.49405093551699,-34.60140000640861,None,1907.0
637,637,Devoto,-58.51278311038524,-34.6026774308495,None,1889.0
638,638,Palermo,-58.426390831929275,-34.57838593213791,None,1888.0
639,639,Sáenz Peña,-58.52794150756155,-34.60319649814653,None,1907.0
640,640,Hurlingham,-58.63240660631219,-34.59105312481854,None,1893.0
641,641,Bella Vista,-58.684692383599014,-34.563791402438746,None,1891.0
642,642,José C. Paz,-58.75028750659715,-34.519063958620514,None,1906.0
643,643,Caseros,-58.56448722086817,-34.6045728428943,None,1888.0
644,644,Retiro,-58.37323920705825,-34.58931332486238,None,1912.0
645,645,Sol y Verde,-58.79770741745364,-34.50398446177167,None,2009.0
646,646,Villa Astolfi,-58.87695810306832,-34.47866590632948,None,1950.0
647,647,Santos Lugares,-58.540806312897075,-34.60368537708252,None,1906.0
648,648,El Palomar,-58.596136274200234,-34.60492999948794,None,1908.0
649,649,William Morris,-58.656340337710944,-34.57859668331388,None,1958.0
650,650,San Miguel,-58.713450493044704,-34.544056513817026,None,1896.0
651,651,Dr. Domingo Cabred,-59.07589661536693,-34.487935430008555,None,2014.0
652,652,Muñiz,-58.703584942236546,-34.551164491818,None,1888.0
653,653,Presidente Derqui,-58.83935121392551,-34.490702592376834,None,1901.0
654,654,Pilar,-58.908258951896755,-34.4686892399815,None,1888.0
655,655,Manzanares,-59.00731160531612,-34.45253217347174,None,2014.0
656,656,González Catán,-58.64678773823722,-34.77166082327382,None,1908.0
657,657,Tapiales,-58.51166240132703,-34.70241880570872,None,1908.0
658,658,Mendeville,-58.52436566958596,-34.712418455440655,None,1909.0
659,659,José Ingenieros,-58.537148686402105,-34.710792647163814,None,1909.0
660,660,Marinos del Fournier,-58.50745582749913,-34.69012298504579,None,1908.0
661,661,Aldo Bonzi,-58.5144026262588,-34.710773087297184,None,1909.0
662,662,J. Villegas,-58.55191702046102,-34.70899020697014,None,1909.0
663,663,Lugano,-58.47702183523228,-34.67720767296419,None,1909.0
664,664,Isidro Casanova,-58.58752216490387,-34.70454520559398,None,1909.0
665,665,Rafael Castillo,-58.62628252101021,-34.699701313567644,None,1909.0
666,666,Merlo Gómez,-58.647553362963635,-34.69703510516275,None,1909.0
667,667,Presidente Illia,-58.44889989569443,-34.66557197300914,None,1908.0
668,668,María Eva Duarte,-58.60171300604152,-34.75640229925038,None,1999.0
669,669,Laferrere,-58.58451967443341,-34.75082329156669,None,1913.0
670,670,Libertad,-58.68649002884753,-34.69214197995113,None,1909.0
671,671,Jáuregui,-59.173629317695344,-34.60066158855176,None,1884.0
672,672,Ingeniero Castello,-58.50596560810419,-34.71027295008304,None,1908.0
673,673,Querandí,-58.53050505846568,-34.722287439099276,None,1908.0
674,674,Independencia,-58.61559895579296,-34.76033724222252,None,1981.0
675,675,Olivera,-59.25540166888413,-34.62794644901348,None,1864.0
676,676,Gowland,-59.352999210596764,-34.647840937807686,None,1888.0
677,677,Empalme Lobos,-59.0909857215718,-35.151617741784996,None,1871.0
678,678,Lobos,-59.09275976862641,-35.18479593181276,None,1871.0
679,679,Victoria,-58.540477452948,-34.45646342393778,None,1892.0
680,680,Buenos Aires,-58.38991693762907,-34.64600661996504,None,999999.0
681,681,Mercedes,-59.4322410741576,-34.65767723652789,None,1864.0
682,682,Zapiola,-59.04200742416698,-35.05844298767401,None,1871.0
683,683,Speratti,-58.99966737379468,-35.001839556927145,None,1871.0
684,684,Las Heras,-58.94454051154989,-34.92802576364565,None,1871.0
685,685,Hornos,-58.917896239352785,-34.892324526753015,None,1884.0
686,686,Zamudio,-58.89221820344302,-34.857899336903984,None,1871.0
687,687,Marcos Paz,-58.83658108441683,-34.7830922609435,None,1870.0
688,688,Mariano Acosta,-58.79302331811266,-34.72439730357695,None,1910.0
689,689,Agustín Ferrari,-58.77941460111991,-34.706056388567646,None,1870.0
690,690,"Kilómetro 34,5",-58.76019398001776,-34.68011411629455,None,1870.0
691,691,Campo de Mayo,-58.68639140708477,-34.5433403609629,None,1914.0
692,692,Teniente Agneta,-58.67844964415859,-34.54911927001957,None,1914.0
693,693,Capitán Lozano,-58.66938096603431,-34.55564347574446,None,1914.0
694,694,Juan B. de La Salle,-58.64516260653486,-34.57364042512949,None,1914.0
695,695,Ejército de los Andes,-58.64034798244912,-34.580178456696686,None,1914.0
696,696,Sargento Cabral,-58.69552742170875,-34.53677047141827,None,1974.0
697,697,Federico Lacroze,-58.45565942781423,-34.586768592215094,None,1888.0
698,698,La Lucila,-58.48858279198403,-34.49750237207516,None,1933.0
699,699,Virreyes,-58.5514900930702,-34.45008182738517,None,1938.0
700,700,Beccar,-58.52636847649552,-34.46091671969247,None,1933.0
701,701,Acassuso,-58.50386123206306,-34.47996638351663,None,1933.0
702,702,Rivadavia,-58.4681787929528,-34.53617656158421,None,1863.0
703,703,Dr. Cetrángolo,-58.49413315955759,-34.52315546329811,None,1951.0
704,704,Carupá,-58.56840618844481,-34.43675309925232,None,1865.0
705,705,San Fernando,-58.558649583389354,-34.44432274555412,None,1864.0
706,706,Victoria,-58.540918513292894,-34.45617535931494,None,1891.0
707,707,San Isidro,-58.513936373131216,-34.4716291326955,None,1864.0
708,708,Martínez,-58.49718558136941,-34.48798984234243,None,1871.0
709,709,Olivos,-58.48033959005028,-34.50841016031651,None,1864.0
710,710,Vicente López,-58.47313788936367,-34.524026765181205,None,1864.0
711,711,Núñez,-58.46268736933921,-34.54859200387331,None,1873.0
712,712,José León Suárez,-58.576721250904924,-34.534179208146746,None,1932.0
713,713,Villa Ballester,-58.55599642007677,-34.55103301288711,None,1895.0
714,714,San Andrés,-58.540610225411214,-34.56360839269826,None,1876.0
715,715,General Urquiza,-58.48783854844416,-34.574722388403174,None,1889.0
716,716,Miguelete,-58.51619833150163,-34.58120662806738,None,1876.0
717,717,Chilavert,-58.56692598732724,-34.54218999646124,None,1876.0
718,718,Malaver,-58.547853459815954,-34.55743983707977,None,1876.0
719,719,San Martín,-58.53170963211113,-34.57361661367066,None,1876.0
720,720,Dr. Luis María Drago,-58.478940978859015,-34.56839890311198,None,1933.0
721,721,Pueyrredón,-58.501744447282434,-34.580490368897316,None,1876.0
722,722,Belgrano R,-58.46244866802037,-34.56782580909735,None,1876.0
723,723,Ministro Carranza,-58.43440756845926,-34.57546328245298,None,1876.0
724,724,Luis María Saavedra,-58.4870240652031,-34.554113120333,None,1891.0
725,725,Florida,-58.494407341161974,-34.52951519115182,None,1891.0
726,726,Colegiales,-58.448181541649134,-34.57302795860363,None,1898.0
727,727,3 de Febrero,-58.42518865357626,-34.571866460022555,None,1915.0
728,728,Coghlan,-58.475119366528716,-34.565330389464116,None,1891.0
729,729,Juan B. Justo,-58.49470616069202,-34.54231947685408,None,1931.0
730,730,Bartolomé Mitre,-58.48906773797644,-34.514830374547785,None,1891.0
731,731,Retiro,-58.37409101496387,-34.59010547199625,None,1912.0
732,732,General Lemos,-58.70083969458822,-34.532927904895736,None,1974.0
733,733,La Reja,-58.82854687000096,-34.63971025950985,None,1864.0
734,734,Francisco Álvarez,-58.85527005113873,-34.63224282017066,None,1923.0
735,735,Once de Septiembre,-58.407458917977785,-34.608442109412735,None,1857.0
736,736,Flores,-58.46567577462284,-34.62772965886758,None,1857.0
737,737,Floresta,-58.48140451731811,-34.632537259651876,None,1857.0
738,738,Hipólito Yrigoyen,-58.378910855852176,-34.65360371878185,None,1866.0
739,739,Caballito,-58.44360455181172,-34.619165527052246,None,1857.0
740,740,Morón,-58.619411380126536,-34.648240798820055,None,1859.0
741,741,Castelar,-58.641987610903655,-34.65198957555494,None,1913.0
742,742,Ituzaingó,-58.6665748058772,-34.65974435830555,None,1872.0
743,743,San Antonio de Padua,-58.698648710397606,-34.665538575090004,None,1923.0
744,744,Merlo,-58.727771096738635,-34.66453449307908,None,1860.0
745,745,Paso del Rey,-58.762100564759,-34.6582261436864,None,1938.0
746,746,Moreno,-58.78984300424283,-34.65051366622797,None,1860.0
747,747,Haedo,-58.592022161946765,-34.64459182334102,None,1886.0
748,748,Ingeniero Pablo Marín,-58.89336111638106,-34.62277142513053,None,1864.0
749,749,Plaza Constitución,-58.38062624485009,-34.628833068093485,None,1865.0
750,750,Temperley,-58.396285198710885,-34.776039053499844,None,1871.0
751,751,Lomas de Zamora,-58.39729288188354,-34.76104576602497,None,1865.0
752,752,Las Malvinas,-58.92172875962336,-34.61617176687064,None,1864.0
753,753,Tierras Altas,-58.740085492652696,-34.47871145589271,None,1988.0
754,754,Del Viso,-58.79680746733092,-34.45337720116645,None,1909.0
755,755,Pablo Nogués,-58.70636287964814,-34.49374498593186,None,1909.0
756,756,Vicealmirante Montes,-58.62002827614231,-34.504130038765474,None,1909.0
757,757,Villa de Mayo,-58.680682343997105,-34.50337256690854,None,1913.0
758,758,Don Torcuato,-58.641841163057094,-34.50269282781579,None,1909.0
759,759,Villa Adelina,-58.546218863697405,-34.52368098206969,None,1909.0
760,760,Munro,-58.52431437541503,-34.53144279892901,None,1912.0
761,761,Tribunales - Teatro Colón,-58.38521099509144,-34.60155832576589,None,1937.0
762,762,Ministro Carranza - Miguel Abuelo,-58.43500544276454,-34.57517207734361,None,1993.0
763,763,Retiro,-58.37584346021206,-34.5924346730826,None,2019.0
764,764,Juan Manuel de Rosas - Villa Urquiza,-58.48656820800867,-34.57410315127712,None,2013.0
765,765,Medrano - Almagro,-58.4209624717517,-34.6031649022273,None,1930.0
766,766,Pasteur - AMIA,-58.3994742577363,-34.6046429678427,None,1930.0
767,767,Callao - Maestro Alfredo Bravo,-58.3927812622604,-34.6044640362732,None,1930.0
768,768,Facultad de Derecho - Julieta Lanteri,-58.39100569935759,-34.582987536452535,None,2018.0
769,769,Villa Rosa,-58.8716377860887,-34.41651966954878,None,1909.0
770,770,Manuel Alberti,-58.7750438124681,-34.4631089035375,None,1965.0
771,771,Tortuguitas,-58.7579569701048,-34.470735835202454,None,1947.0
772,772,Grand Bourg,-58.72519461390844,-34.4853483047726,None,1909.0
773,773,Los Polvorines,-58.694772853012594,-34.4989166022358,None,1909.0
774,774,Adolfo Sourdeaux,-58.66644695008851,-34.50299514623151,None,1955.0
775,775,Boulogne Sur Mer,-58.564858738663006,-34.508964593650965,None,1909.0
776,776,Carapachay,-58.53771913032446,-34.52875775371225,None,1930.0
777,777,Florida,-58.5130719407167,-34.537149035100036,None,1912.0
778,778,Miguel Manuel Padilla,-58.50063414167728,-34.54345660674089,None,1912.0
779,779,Ciudad Universitaria,-58.446555035507004,-34.5438041563882,None,2015.0
780,780,Aristóbulo del Valle,-58.47730777209719,-34.5372667144452,None,1912.0
781,781,Zelaya,-58.869481040501555,-34.370124230648045,None,1892.0
782,782,Capilla del Señor,-59.10246403117114,-34.286336445375085,None,1892.0
783,783,Los Cardales,-58.98748688672295,-34.33089184965772,None,1903.0
784,784,Alejandro Korn,-58.373750573612114,-34.981023992470654,None,1865.0
785,785,Tolosa,-57.96807874006787,-34.89098614500584,None,1883.0
786,786,Darío Santillán y Maximiliano Kosteki,-58.37664905365066,-34.66204168487568,None,1865.0
787,787,Sarandí,-58.345115463198084,-34.678839469087265,None,1872.0
788,788,Gerli,-58.38274732926794,-34.68609520500135,None,1910.0
789,789,Lanús,-58.390675888209074,-34.70764384645708,None,1868.0
790,790,Remedios de Escalada,-58.393636887634294,-34.72705391886952,None,1868.0
791,791,Banfield,-58.39534456856584,-34.74318018642511,None,1873.0
792,792,Guernica,-58.38057801248314,-34.91795084623992,None,1888.0
793,793,La Plata,-57.94997257822797,-34.90416075437674,None,1906.0
794,794,Adrogué,-58.394279242359175,-34.79740623023402,None,1872.0
795,795,Burzaco,-58.39139403874837,-34.825075966749814,None,1888.0
796,796,Longchamps,-58.387227717674264,-34.85960708800601,None,1910.0
797,797,Glew,-58.38378608752277,-34.88831199505677,None,1865.0
798,798,Donselaar,-58.290420533562084,-35.070348607730274,None,1865.0
799,799,Coronel Brandsen,-58.23188127013695,-35.16801173513268,None,1865.0
800,800,Altamirano,-58.15125121921244,-35.36109045557809,None,1865.0
801,801,Gándara,-58.09401077910698,-35.44944889507488,None,1865.0
802,802,Chascomús,-57.98242164894312,-35.57899825353,None,1865.0
803,803,Jeppener,-58.1982197824545,-35.27761940603295,None,1865.0
804,804,Ezpeleta,-58.234117621192695,-34.75191455724391,None,1889.0
805,805,Berazategui,-58.20875703066591,-34.76397968363534,None,1872.0
806,806,Plátanos,-58.17083319375679,-34.782320568782296,None,1872.0
807,807,Hudson,-58.15552627793119,-34.79099611919698,None,1872.0
808,808,Villa Elisa,-58.07501594887336,-34.84970369874253,None,1884.0
809,809,City Bell,-58.0444818061637,-34.86457482538544,None,1914.0
810,810,Manuel B. Gonnet,-58.01055656094972,-34.87994247070761,None,1889.0
811,811,Ringuelet,-57.996242216666346,-34.88148520896717,None,1886.0
812,812,Pereyra,-58.094665070145645,-34.83655981828059,None,1872.0
813,813,Villa Domínico,-58.325423853216975,-34.69147810684601,None,1909.0
814,814,Wilde,-58.31119561302967,-34.697567900218665,None,1888.0
815,815,Don Bosco,-58.29626879658515,-34.70331897060207,None,1927.0
816,816,Bernal,-58.28043154278262,-34.70935877428989,None,1878.0
817,817,Quilmes,-58.26086720125474,-34.724392110035154,None,1872.0
818,818,Monte Grande,-58.46972388751297,-34.814502866959415,None,1913.0
819,819,Luis Guillón,-58.44854746509459,-34.80326496824997,None,1885.0
820,820,Lavallol,-58.430091295765735,-34.79714557660003,None,1885.0
821,821,Turdera,-58.408065765726434,-34.79511175992314,None,1885.0
822,822,Intendente Pedro P. Turner,-58.47466231972548,-34.73339133111717,None,1971.0
823,823,Villa España,-58.19527064819597,-34.77505711420906,None,1911.0
824,824,Cañuelas,-58.754449921654526,-35.05939749536497,None,1885.0
825,825,Dr. Ricardo Levene,-58.72396897714334,-35.021791014391376,None,1885.0
826,826,Kloosterman,-58.68979890030117,-34.98642546443428,None,1885.0
827,827,Zeballos,-58.25672746712864,-34.81099763270648,None,1911.0
828,828,Alejandro Petión,-58.67464003739515,-34.9776492535802,None,1885.0
829,829,Vicente Casares,-58.64792925722247,-34.962260395403455,None,1885.0
830,830,Bosques,-58.23044609441553,-34.819478731275886,None,1883.0
831,831,Máximo Paz,-58.620585908934515,-34.936378168126005,None,1885.0
832,832,Carlos Spegazzini,-58.594278924679585,-34.909961720987226,None,1885.0
833,833,Tristán Suárez,-58.56790307949878,-34.88938404895361,None,1885.0
834,834,Agustín De Elía,-58.505939045111035,-34.70992995864605,None,1875.0
835,835,Unión Ferroviaria,-58.543396776717685,-34.87024307632745,None,1885.0
836,836,Ingeniero Dante Ardigó,-58.302541662661525,-34.808889393768126,None,1970.0
837,837,Ezeiza,-58.52281748016533,-34.85414337625113,None,1885.0
838,838,El Jagüel,-58.4962527615793,-34.83333721140208,None,1965.0
839,839,Florencio Varela,-58.27409781630274,-34.811142045438814,None,1883.0
840,840,La Tablada,-58.5281626494034,-34.692982074611095,None,1875.0
841,841,Claypole,-58.33811186841868,-34.80120695642858,None,1883.0
842,842,Rafael Calzada,-58.35905267749277,-34.796718089803726,None,1883.0
843,843,San Justo,-58.555621544459214,-34.67399599761981,None,1886.0
844,844,Sourigues,-58.213076158264855,-34.80715481127373,None,1939.0
845,845,José Mármol,-58.38129976634288,-34.79190821226856,None,1875.0
846,846,Ranelagh,-58.20324291019966,-34.78942431502421,None,1911.0
847,847,Hospital Español,-58.40752058219027,-34.78621734530725,None,1940.0
848,848,Santa Catalina,-58.43749473674373,-34.78021753317704,None,1875.0
849,849,Juan XXIII,-58.44410041194821,-34.77138788295507,None,1932.0
850,850,Kilómetro 34,-58.46504771378565,-34.74341199822329,None,1963.0
851,851,Ingeniero Santiago Brian,-58.57290169793809,-34.658195887550875,None,1886.0
852,852,Haedo,-58.591892951819176,-34.645002156894044,None,1886.0
853,853,Juan María Gutiérrez,-58.18560337676169,-34.83401925541962,None,1883.0
854,854,Santa Sofía,-58.21340066157694,-34.82500929721735,None,1883.0
855,855,Constitución,-58.3811065645115,-34.63066349036034,None,999999.0
856,856,Humberto 1º,-58.40230251495974,-34.62309560710808,None,2007.0
857,857,Inclán - Mezquita Al Ahmad,-58.400954804782685,-34.629375244274584,None,2007.0
858,858,Plaza de los Virreyes - Eva Perón,-58.461770807244925,-34.64317550833751,None,1986.0
859,859,Once - 30 de Diciembre,-58.40602879106705,-34.608947926167176,None,2007.0
860,860,Santa Fe - Carlos Jáuregui,-58.402344858393235,-34.594457198201546,None,2016.0
861,861,Nuestra Señora de Fátima,-58.448736968646436,-34.660536166980066,None,2000.0
862,862,Fernández de la Cruz,-58.44650643580956,-34.66226312281598,None,1987.0
863,863,Presidente Illia,-58.448889572091254,-34.665446822959645,None,1987.0
864,864,Presidente Illia,-58.44883308350196,-34.66529371252917,None,1987.0
865,865,Guatemala,-58.43002686927646,-34.58185913304692,None,2011.0
866,866,Pacífico,-58.42658837245274,-34.577603210015,None,2011.0
867,867,Honduras,-58.43473114480781,-34.58536063778866,None,2011.0
868,868,Aguirre,-58.44069876343872,-34.5922655366666,None,2011.0
869,869,Av. Corrientes,-58.444300296056014,-34.59476518261869,None,2011.0
870,870,Murillo,-58.44766512281004,-34.59710855760198,None,2011.0
871,871,Av. Honorio Pueyrredón,-58.45203672293043,-34.6001301620002,None,2011.0
872,872,Av. San Martín,-58.45843662575572,-34.604486830592634,None,2011.0
873,873,Av. Donato Álvarez,-58.46269212805849,-34.60737905331317,None,2011.0
874,874,Boyacá,-58.46786590873967,-34.61130046994225,None,2011.0
875,875,Artigas,-58.47224809378544,-34.613837568631965,None,2011.0
876,876,Av. Nazca,-58.47610929147045,-34.6180853226691,None,2011.0
877,877,Concordia,-58.48082279089786,-34.62205944029195,None,2011.0
878,878,Chivilcoy,-58.485943342786726,-34.6251362871732,None,2011.0
879,879,Av. Segurola,-58.491096328851214,-34.62698079145599,None,2011.0
880,880,Carrasco,-58.49484508642206,-34.629514674639246,None,2011.0
881,881,Av. Lope de Vega,-58.50097487432102,-34.63216813398419,None,2011.0
882,882,Cortina,-58.506711593807296,-34.63432397220794,None,2011.0
883,883,Polideportivo Vélez Sarsfield,-58.51381723878393,-34.63345352701354,None,2011.0
884,884,Liniers,-58.52590872134148,-34.638246095774555,None,2011.0
885,885,Marcelo T. de Alvear,-58.372529759626374,-34.595643608512134,None,2017.0
886,886,Paraguay,-58.37201784423918,-34.59671948511358,None,2017.0
887,887,Entre Ríos,-58.39199172340015,-34.629552588959776,None,2013.0
888,888,Yrigoyen,-58.38125439372895,-34.60983470933252,None,2013.0
889,889,Av. Belgrano,-58.36939442676204,-34.61173981990938,None,2017.0
890,890,Av. Córdoba,-58.3713460185739,-34.59798981153855,None,2017.0
891,891,Alsina,-58.38116544135872,-34.61095992845478,None,2013.0
892,892,Matienzo,-58.44014271128394,-34.57242573782169,None,2016.0
893,893,Humboldt,-58.427921672999275,-34.57763874469705,None,2016.0
894,894,Fitz Roy,-58.429289722420236,-34.57725890739533,None,2016.0
895,895,Viamonte,-58.37095541238037,-34.59897668450975,None,2017.0
896,896,Ladines,-58.51536788574974,-34.5903920538441,None,2016.0
897,897,Mosconi,-58.511025869033006,-34.59168417096368,None,2016.0
898,898,Cubas,-58.50734409870769,-34.593014635285044,None,2016.0
899,899,Solano López,-58.49955311991138,-34.59592812341117,None,2016.0
900,900,Roffo,-58.49522789002131,-34.596906207285315,None,2016.0
901,901,Comunicaciones,-58.491189902573964,-34.59717709389518,None,2016.0
902,902,2 de Abril,-58.486821864517054,-34.59746620683019,None,2016.0
903,903,Agronomía,-58.48317499750277,-34.59780363442355,None,2016.0
904,904,Empedrado,-58.480787530009266,-34.598837092137224,None,2016.0
905,905,Córdoba,-58.38184952918952,-34.59940579465848,None,2013.0
906,906,Argentinos Juniors,-58.47029108897334,-34.60155607326411,None,2016.0
907,907,Donato Álvarez,-58.464923346639324,-34.60284535698199,None,2016.0
908,908,Pappo Napolitano,-58.45924197611143,-34.604274434067044,None,2016.0
909,909,Santa Fe,-58.38217025097288,-34.5955870252168,None,2013.0
910,910,Marcelo T. de Alvear,-58.38201268675272,-34.59699495248187,None,2013.0
911,911,Paraguay,-58.38190740115371,-34.598168552857864,None,2013.0
912,912,Teatro Colón,-58.381787986536295,-34.60054531672263,None,2013.0
913,913,Obelisco Norte,-58.38171866120352,-34.60188380598754,None,2013.0
914,914,Obelisco Sur,-58.381540537529546,-34.60529346116121,None,2013.0
915,915,Juan D. Perón,-58.38146603553638,-34.606493901910525,None,2013.0
916,916,Mitre,-58.38139926952704,-34.60766782323051,None,2013.0
917,917,Constitución,-58.38092815335976,-34.6276103106284,None,2013.0
918,918,Belgrano,-58.38107105835384,-34.6133960245679,None,2013.0
919,919,Venezuela,-58.38100606183497,-34.61452043072694,None,2013.0
920,920,México,-58.36923881508483,-34.61421517180508,None,2017.0
921,921,México,-58.380982769803296,-34.61549647211488,None,2013.0
922,922,Chile,-58.380931872912754,-34.61674937256953,None,2013.0
923,923,Independencia,-58.38088373165348,-34.6178744911944,None,2013.0
924,924,Chile,-58.36917752838542,-34.61540244172519,None,2017.0
925,925,Estados Unidos,-58.380841361845796,-34.61887820333129,None,2013.0
926,926,Combate de los Pozos,-58.39164467915474,-34.62724044865389,None,2013.0
927,927,Ricardo Rojas,-58.372971682455244,-34.59471875438921,None,2017.0
928,928,Tucumán,-58.37065580541339,-34.600160791533014,None,2017.0
929,929,Garrahan,-58.39529019852833,-34.63017925106682,None,2013.0
930,930,Lavalle,-58.37043530416072,-34.6013183105127,None,2017.0
931,931,Av. Corrientes,-58.370300913222536,-34.60254712190323,None,2017.0
932,932,Sarmiento,-58.370215485964565,-34.603643775435835,None,2017.0
933,933,Pichincha,-58.3962075148135,-34.62797759232366,None,2013.0
934,934,Perón,-58.37011162053717,-34.60494692501471,None,2017.0
935,935,Alsina,-58.36944710673697,-34.6098603367112,None,2017.0
936,936,Moreno,-58.369432231230945,-34.610573344898626,None,2017.0
937,937,Jujuy,-58.40085793225907,-34.631712173399684,None,2013.0
938,938,Av. Independencia,-58.36911799782243,-34.616595323175034,None,2017.0
939,939,Jujuy,-58.40086181560996,-34.628663638398166,None,2013.0
940,940,La Rioja,-58.40717352383666,-34.63112109223062,None,2013.0
941,941,La Rioja,-58.406483464537914,-34.63384227423834,None,2013.0
942,942,Brasil,-58.40948808712203,-34.634754221029944,None,2013.0
943,943,Sánchez de Loria,-58.4101283847952,-34.63360216580493,None,2013.0
944,944,Bathurst,-58.410699278292384,-34.636337002114466,None,2013.0
945,945,Boedo,-58.41552153496745,-34.63708566456951,None,2013.0
946,946,Larrazábal,-58.457158683926465,-34.686451713188134,None,2013.0
947,947,Caseros,-58.41930716045033,-34.64003747467266,None,2013.0
948,948,Av. La Plata,-58.42313967302667,-34.643097173178816,None,2013.0
949,949,Lisandro de la Torre,-58.46353524512452,-34.69208148568188,None,2013.0
950,950,José C. Paz,-58.41423214399377,-34.64505932685932,None,2013.0
951,951,Grito de Asencio,-58.41587539230282,-34.647825568939446,None,2013.0
952,952,Pompeya,-58.416353080232014,-34.65180384587179,None,2013.0
953,953,Piedrabuena,-58.466183745307575,-34.69452766355327,None,2013.0
954,954,Sáenz,-58.417442541790024,-34.65510829792544,None,2013.0
955,955,Vedia,-58.42178153910588,-34.6564045515883,None,2013.0
956,956,Pola,-58.46532091117406,-34.67868271400021,None,2013.0
957,957,Bonorino,-58.42630994343031,-34.65856458565249,None,2013.0
958,958,Guaminí,-58.46761894971392,-34.695854444112555,None,2013.0
959,959,Berg,-58.42927095678286,-34.65994574901688,None,2013.0
960,960,Varela,-58.432735339410954,-34.66154003891749,None,2013.0
961,961,Lafuente,-58.43707362052615,-34.6635479946232,None,2013.0
962,962,General Paz,-58.46980608781956,-34.69784525279242,None,2013.0
963,963,Mariano Acosta,-58.44039638424137,-34.66646053102278,None,2013.0
964,964,Lacarra,-58.44245148499306,-34.668352823624566,None,2013.0
965,965,Parque Roca,-58.44521192967902,-34.67171545876946,None,2013.0
966,966,Puente La Noria,-58.46185048253294,-34.7045467451845,None,2013.0
967,967,Estadio Parque Roca,-58.44815352744227,-34.676411699258935,None,2013.0
968,968,Escalada,-58.45296269975863,-34.68237433258256,None,2013.0
969,969,Escalada,-58.46155811429334,-34.67533447778061,None,2013.0
970,970,Larrazábal,-58.45749074545826,-34.68628892317645,None,2013.0
971,971,José L. Suárez,-58.47809758401414,-34.69007811798246,None,2013.0
972,972,Soldado de la Frontera,-58.461188229473365,-34.68985473202467,None,2013.0
973,973,Soldado de la Frontera,-58.46106322218229,-34.68991248858697,None,2013.0
974,974,Montiel,-58.476846019155275,-34.6889360989254,None,2013.0
975,975,Piedrabuena,-58.47567173950824,-34.68787446609324,None,2013.0
976,976,Lisandro de la Torre,-58.47227778783157,-34.68481185893205,None,2013.0
977,977,Cecilia Grierson,-58.45467500593054,-34.669144468447,None,2013.0
978,978,Laguna,-58.44891515806482,-34.664276761238526,None,2013.0
979,979,Lafuente,-58.44259248723952,-34.65944997929758,None,2013.0
980,980,Varela,-58.43808221323869,-34.65552368903367,None,2013.0
981,981,San Lorenzo,-58.434484915159246,-34.65304057836177,None,2013.0
982,982,Perito Moreno,-58.43106961170352,-34.65030974469519,None,2013.0
983,983,La Pampa,-58.45468968542684,-34.56436225727243,None,2016.0
984,984,Del Barco Centenera,-58.427990506397435,-34.647587694372405,None,2013.0
985,985,Thames,-58.422120622647796,-34.580714875552644,None,2016.0
986,986,Uriarte,-58.42301703423355,-34.58013577726729,None,2016.0
987,987,Sucre,-58.45550749246719,-34.56340961770993,None,2016.0
988,988,Darregueyra,-58.423889554848216,-34.579548712739474,None,2016.0
989,989,Oro,-58.424780385832946,-34.57898031226003,None,2016.0
990,990,Monroe,-58.46022801185113,-34.55797446674086,None,2016.0
991,991,Juan B. Justo,-58.426897122043314,-34.577954817402336,None,2016.0
992,992,Juramento,-58.456877930604264,-34.56181204949186,None,2016.0
993,993,Jorge Newbery,-58.4413300321219,-34.57178171512807,None,2016.0
994,994,Roosevelt,-58.46119643962872,-34.55691631412104,None,2016.0
995,995,Maure,-58.44220497223638,-34.57131367660797,None,2016.0
996,996,Gorostiaga,-58.44294446522835,-34.570943784855196,None,2016.0
997,997,Crisólogo Larralde,-58.46835856718664,-34.5487620028816,None,2015.0
998,998,Olleros,-58.44456464614872,-34.57013474006004,None,2016.0
999,999,Ugarte,-58.46209928213655,-34.55596086711608,None,2016.0
1000,1000,Teodoro García,-58.44635368483186,-34.56924635209861,None,2016.0
1001,1001,Palpa,-58.44674037640462,-34.56905738476997,None,2016.0
1002,1002,Aguilar,-58.4471426320728,-34.56885970698617,None,2016.0
1003,1003,Congreso,-58.46306158067749,-34.55497059319146,None,2015.0
1004,1004,Céspedes,-58.44852462560887,-34.56814151474205,None,2016.0
1005,1005,Zabala,-58.44901674654041,-34.56787655280695,None,2016.0
1006,1006,Virrey Loreto,-58.44992879080452,-34.5673812672342,None,2016.0
1007,1007,Quesada,-58.46404100623434,-34.55400087559077,None,2015.0
1008,1008,Virrey Arredondo,-58.45162516690627,-34.56645907818407,None,2016.0
1009,1009,Virrey del Pino,-58.45251430271486,-34.56597352396303,None,2016.0
1010,1010,Mendoza,-58.457897443995535,-34.56062249520425,None,2016.0
1011,1011,Iberá,-58.46484885317096,-34.553128721143786,None,2015.0
1012,1012,Olazábal,-58.45872350904955,-34.55965706268093,None,2016.0
1013,1013,Blanco Encalada,-58.459542141475936,-34.558726114655705,None,2016.0
1014,1014,Campos Salles,-58.46599397061466,-34.551699965072885,None,2015.0
1015,1015,Manuel Pedraza,-58.46635541358968,-34.551241411888356,None,2015.0
1016,1016,Juana Azurduy,-58.46695315631463,-34.55049951959385,None,2015.0
1017,1017,Núñez,-58.467400899435944,-34.54995266545729,None,2015.0
1018,1018,Manzanares,-58.469318402808014,-34.54756154949889,None,2015.0
1019,1019,Paroissien,-58.4698354723362,-34.54688648117368,None,2015.0
1020,1020,Vilela,-58.470290466236065,-34.54627531264063,None,2015.0
1021,1021,Besares,-58.47080598376418,-34.54558425461056,None,2015.0
1022,1022,Ruiz Huidobro,-58.47132200621357,-34.544895493948154,None,2015.0
1023,1023,Correa,-58.47186347873898,-34.54416416846817,None,2015.0
1024,1024,Urquiza,-58.48238084190409,-34.52634934986436,None,2015.0
1025,1025,Ramallo,-58.47245635968636,-34.54336062794414,None,2015.0
1026,1026,Arias,-58.47301538269386,-34.54260928821719,None,2015.0
1027,1027,Deheza,-58.4735671277122,-34.54188234802239,None,2015.0
1028,1028,Vergara,-58.48292366698233,-34.52537311002033,None,2015.0
1029,1029,Pico,-58.47419809519917,-34.541031879735456,None,2015.0
1030,1030,General Paz,-58.475852058006126,-34.538855741865795,None,2015.0
1031,1031,Laprida,-58.47738270879927,-34.535903124219814,None,2015.0
1032,1032,Alsina,-58.47789846272423,-34.534863536713495,None,2015.0
1033,1033,Álvarez,-58.47835000471642,-34.533963581186995,None,2015.0
1034,1034,Lavalle,-58.47880226950714,-34.533063929640555,None,2015.0
1035,1035,Las Heras,-58.4793220715503,-34.53204590141826,None,2015.0
1036,1036,Güemes,-58.479804097039846,-34.53109606309113,None,2015.0
1037,1037,Melo,-58.480335324148456,-34.53008631745144,None,2015.0
1038,1038,Haedo,-58.48074694009874,-34.529315888572185,None,2015.0
1039,1039,Santa Rosa,-58.48134172375478,-34.528215370077554,None,2015.0
1040,1040,Roca,-58.48186390997722,-34.52728269081479,None,2015.0
1041,1041,San Martín,-58.483489473643814,-34.52436286953625,None,2015.0
1042,1042,Arenales,-58.48400399734493,-34.52342942297777,None,2015.0
1043,1043,Libertad,-58.48449147158165,-34.52252266950599,None,2015.0
1044,1044,Yrigoyen,-58.48504423981228,-34.52144820949722,None,2015.0
1045,1045,Italia,-58.4856297997583,-34.52032700151654,None,2015.0
1046,1046,Malaver,-58.48634903954756,-34.518989409075985,None,2015.0
1047,1047,Lisandro de la Torre,-58.43586480272448,-34.562590632309075,None,2019.0
1048,1048,Belgrano C,-58.44947362974356,-34.55853930971004,None,2019.0
1049,1049,Av. Córdoba,-58.438246591259215,-34.5888397020154,None,2019.0
1050,1050,Panamericana,-58.82412018248861,-34.43922054868512,None,
1051,1051,La Paternal,-58.4667363245745,-34.596860417650106,None,2022.0
1052,1052,Congreso - Presidente Dr. Raúl Alfonsín,-58.39269648617438,-34.60923924206838,None,1913.0
1053,1053,Dr. A. Sáenz,-58.41633944216629,-34.64909751090013,None,2019.0
1054,1054,Lambaré,-58.58642469386299,-34.63555917243212,None,2018.0
1055,1055,Fassola,-58.59217841050658,-34.63546270992283,None,2018.0
1056,1056,Dolores Prats,-58.59743265632915,-34.63557860750253,None,2018.0
1057,1057,Primera Junta,-58.602608804379614,-34.63581245136373,None,2018.0
1058,1058,Derqui,-58.612867804108504,-34.634241875367216,None,2018.0
1059,1059,La Rioja,-58.617371650612185,-34.633601202792505,None,2018.0
1060,1060,Los Andes,-58.308380584556986,-34.71294805497789,None,2019.0
1061,1061,Amado Nervo,-58.60756981355729,-34.63504739958942,None,2018.0
1062,1062,Montevideo,-58.30485286229779,-34.716382498764894,None,2019.0
1063,1063,Cerrito,-58.30368266614799,-34.720155982502625,None,2019.0
1064,1064,Tucumán,-58.624178009154775,-34.56283002590687,None,2017.0
1065,1065,Zapiola,-58.302117294634584,-34.72528090700532,None,2019.0
1066,1066,Fornabaio,-58.28410756440148,-34.7529030099642,None,2019.0
1067,1067,Hugo del Carril,-58.61973852836675,-34.56282018353652,None,2017.0
1068,1068,Esquiú,-58.28225258403103,-34.75529824421676,None,2019.0
1069,1069,Centro Comercial,-58.278487750402846,-34.76010158101793,None,2019.0
1070,1070,Gabino Ezeiza,-58.6134764385295,-34.56276598436349,None,2017.0
1071,1071,General Savio,-58.27468343009451,-34.76496862629793,None,2019.0
1072,1072,República de Francia,-58.27195374077823,-34.768468357790724,None,2019.0
1073,1073,1° de Mayo,-58.610062248018295,-34.56276087293959,None,2017.0
1074,1074,Hospital el Cruce,-58.26907187028222,-34.77154240323344,None,2019.0
1075,1075,UNAJ,-58.26745130266001,-34.77366008308732,None,2019.0
1076,1076,San Martín,-58.593507418473706,-34.56262943536249,None,2017.0
1077,1077,Hospital Dr. Bocalandro,-58.60262481698358,-34.56272778149378,None,2017.0
1078,1078,General Lavalle,-58.598334241441364,-34.56266917802651,None,2017.0
1079,1079,Tres Cruces,-58.59879603479766,-34.72471266403163,None,2017.0
1080,1080,Carlos Casares,-58.59642280379377,-34.71971865572112,None,2017.0
1081,1081,Marconi,-58.59219280974635,-34.71361898983261,None,2017.0
1082,1082,Cristianía,-58.58689663553153,-34.70838437003428,None,2017.0
1083,1083,Hospital Paroissien,-58.57631205883014,-34.6969771249364,None,2017.0
1084,1084,Pedro León Gallo,-58.57373748031662,-34.69397756541523,None,2017.0
1085,1085,Gral. Madariaga,-58.56948065513926,-34.69064343984134,None,2017.0
1086,1086,Derqui,-58.56443350665832,-34.68765865197023,None,2017.0
1087,1087,Rotonda San Justo,-58.55698284304157,-34.68424436391323,None,2017.0
1088,1088,Dr. Ignacio Arieta,-58.55492714896441,-34.68279137919168,None,2017.0
1089,1089,Catalinas,-58.37197996591011,-34.59680621830303,None,2019.0
1090,1090,Correo Central,-58.370233681560336,-34.60340653062607,None,2019.0
1091,1091,Centro de Trasbordo González Catán,-58.61645899292687,-34.75939013838763,None,2017.0
1092,1092,Intendente Federico Russo,-58.61442514531727,-34.75445273369226,None,2017.0
1093,1093,Recuero,-58.60893176888263,-34.74500471069509,None,2017.0
1094,1094,Da Vinci,-58.611661439189476,-34.749152678654795,None,2017.0
1095,1095,Salvigny,-58.60622973266442,-34.74091400435765,None,2017.0
1096,1096,P. Luro,-58.60366903308186,-34.73577377947146,None,2017.0
1097,1097,Hospital Materno Infantil,-58.601540379668336,-34.73045751502605,None,2017.0
1098,1098,Reconquista,-58.585813768226544,-34.562602054925144,None,2019.0
1099,1099,Cuba,-58.58040675603009,-34.56261139027034,None,2019.0
1100,1100,Martín Fierro,-58.57359568477406,-34.56399330979582,None,2019.0
1101,1101,José Hernández,-58.56858453724902,-34.5650973057036,None,2019.0
1102,1102,O´Donnell,-58.56503586531346,-34.56587535326168,None,2019.0
1103,1103,Moreno,-58.56086641504551,-34.566790330892154,None,2019.0
1104,1104,Guido Spano,-58.55687170486769,-34.56867084157056,None,2019.0
1105,1105,Hospital Eva Perón,-58.55355751033896,-34.57130081970557,None,2019.0
1106,1106,José C. Paz,-58.54857594579052,-34.57526353793706,None,2019.0
1107,1107,Murature,-58.523606486942576,-34.58793576635238,None,2019.0
1108,1108,Av. General Paz,-58.519937575334495,-34.589040619243534,None,2019.0
1109,1109,Cabral,-58.265006089380705,-34.77690908837654,None,2019.0
1110,1110,20 de Junio,-58.73797901744153,-34.780221943650254,None,2019.0
1111,1111,Uribelarrea,-58.8984450120404,-35.11538685901585,None,2019.0
1112,1112,Monte,-58.81757027465409,-35.436684695317545,None,2019.0
1113,1113,Abbott,-58.80284292125134,-35.281313176757905,None,2019.0
1114,1114,La Noria,-58.78816981687336,-35.16524555083791,None,2019.0
1115,1115,Policlínico,-57.9213603898547,-34.92537929594972,None,2013.0
1116,1116,Diagonal 73,-57.919112823988954,-34.92003969503036,None,2013.0
1117,1117,Periodismo,-57.924089277733955,-34.91237871784125,None,2013.0
1118,1118,Medicina,-57.92813105192589,-34.908809057955146,None,2013.0
1119,1119,Informática,-57.93774209404758,-34.90319831355811,None,2013.0
1120,1120,Arquitectura,-57.94283099323066,-34.904816432544585,None,2013.0
1121,1121,La Plata,-57.94977935010645,-34.90403727571648,None,2013.0
1122,1122,Rodríguez Peña,-58.52566353386561,-34.58734751900473,None,2019.0
