nodeID,nodeLabel,latitude,longitude,mode,year
0,Congreso - Presidente Dr. Raúl Alfonsín,-58.39269648617438,-34.60923924206838,heavy_rail,1913.0
1,Juan Manuel de Rosas - Villa Urquiza,-58.48656820800867,-34.57410315127712,heavy_rail,2013.0
2,Medrano - Almagro,-58.4209624717517,-34.6031649022273,heavy_rail,1930.0
3,Pasteur - AMIA,-58.3994742577363,-34.6046429678427,heavy_rail,1930.0
4,Callao - Maestro Alfredo Bravo,-58.3927812622604,-34.6044640362732,heavy_rail,1930.0
5,Tribunales - Teatro Colón,-58.38521099509144,-34.60155832576589,heavy_rail,1937.0
6,Ministro Carranza - Miguel Abuelo,-58.43500544276454,-34.57517207734361,heavy_rail,1993.0
7,Sáenz,-58.41772579034085,-34.64947650634418,heavy_rail,999999.0
8,Facultad de Derecho - Julieta Lanteri,-58.39100569935759,-34.582987536452535,heavy_rail,2018.0
9,Humberto 1º,-58.40230251495974,-34.62309560710808,heavy_rail,2007.0
10,Inclán - Mezquita Al Ahmad,-58.400954804782685,-34.629375244274584,heavy_rail,2007.0
11,Once - 30 de Diciembre,-58.40602879106705,-34.608947926167176,heavy_rail,2007.0
12,Santa Fe - Carlos Jáuregui,-58.402344858393235,-34.594457198201546,heavy_rail,2016.0
13,Retiro,-58.37584346021206,-34.5924346730826,heavy_rail,2019.0
14,Plaza de los Virreyes - Eva Perón,-58.461770807244925,-34.64317550833751,heavy_rail,1986.0
15,Catalinas,-58.37197996591011,-34.59680621830303,heavy_rail,2019.0
16,Correo Central,-58.370233681560336,-34.60340653062607,heavy_rail,2019.0
17,Balbastro,-58.456299890832994,-34.64871586854532,tram,1987.0
18,Intendente Saguier,-58.461852324410444,-34.64306288348926,tram,1987.0
19,Mariano Acosta,-58.45654715646777,-34.65437974384756,tram,1987.0
20,Ana María Janer,-58.44991234270943,-34.65959057233384,tram,1987.0
21,Cecilia Grierson,-58.45769456051625,-34.67232720607125,tram,1987.0
22,Escalada,-58.46005095133448,-34.67445371092862,tram,1987.0
23,Larrazábal,-58.46532460936515,-34.68059937539099,tram,1987.0
24,Gabino Ezeiza,-58.45823696127458,-34.685861898543294,tram,1987.0
25,Ana Díaz,-58.46680709732453,-34.680514509411594,tram,1987.0
26,Centro Cívico,-58.46510250089386,-34.683567734149335,tram,1987.0
27,Somellera,-58.45378271083462,-34.65653580407197,tram,1987.0
28,Parque de la Ciudad,-58.45426332703083,-34.66901849769002,tram,1987.0
29,Pola,-58.46443441630648,-34.678090916478475,tram,2006.0
30,Nicolás Descalzi,-58.46236199258477,-34.68282766342487,tram,1987.0
31,General Savio,-58.46093536482354,-34.689715522467516,tram,1987.0
32,Nuestra Señora de Fátima,-58.448736968646436,-34.660536166980066,tram,2000.0
33,Fernández de la Cruz,-58.44650643580956,-34.66226312281598,tram,1987.0
34,Presidente Illia,-58.448889572091254,-34.665446822959645,tram,1987.0
35,Presidente Illia,-58.44883308350196,-34.66529371252917,tram,1987.0
36,Tucumán,-58.624178009154775,-34.56283002590687,brt,2017.0
37,Hugo del Carril,-58.61973852836675,-34.56282018353652,brt,2017.0
38,Gabino Ezeiza,-58.6134764385295,-34.56276598436349,brt,2017.0
39,1° de Mayo,-58.610062248018295,-34.56276087293959,brt,2017.0
40,San Martín,-58.593507418473706,-34.56262943536249,brt,2017.0
41,Hospital Dr. Bocalandro,-58.60262481698358,-34.56272778149378,brt,2017.0
42,General Lavalle,-58.598334241441364,-34.56266917802651,brt,2017.0
43,Reconquista,-58.585813768226544,-34.562602054925144,brt,2019.0
44,Cuba,-58.58040675603009,-34.56261139027034,brt,2019.0
45,Martín Fierro,-58.57359568477406,-34.56399330979582,brt,2019.0
46,José Hernández,-58.56858453724902,-34.5650973057036,brt,2019.0
47,O´Donnell,-58.56503586531346,-34.56587535326168,brt,2019.0
48,Moreno,-58.56086641504551,-34.566790330892154,brt,2019.0
49,Guido Spano,-58.55687170486769,-34.56867084157056,brt,2019.0
50,Hospital Eva Perón,-58.55355751033896,-34.57130081970557,brt,2019.0
51,José C. Paz,-58.54857594579052,-34.57526353793706,brt,2019.0
52,Murature,-58.523606486942576,-34.58793576635238,brt,2019.0
53,Av. General Paz,-58.519937575334495,-34.589040619243534,brt,2019.0
54,Rodríguez Peña,-58.52566353386561,-34.58734751900473,brt,2019.0
55,Lambaré,-58.58642469386299,-34.63555917243212,brt,2018.0
56,Fassola,-58.59217841050658,-34.63546270992283,brt,2018.0
57,Dolores Prats,-58.59743265632915,-34.63557860750253,brt,2018.0
58,Primera Junta,-58.602608804379614,-34.63581245136373,brt,2018.0
59,Derqui,-58.612867804108504,-34.634241875367216,brt,2018.0
60,La Rioja,-58.617371650612185,-34.633601202792505,brt,2018.0
61,Amado Nervo,-58.60756981355729,-34.63504739958942,brt,2018.0
62,Matienzo,-58.44014271128394,-34.57242573782169,brt,2016.0
63,Humboldt,-58.427921672999275,-34.57763874469705,brt,2016.0
64,Fitz Roy,-58.429289722420236,-34.57725890739533,brt,2016.0
65,La Pampa,-58.45468968542684,-34.56436225727243,brt,2016.0
66,Thames,-58.422120622647796,-34.580714875552644,brt,2016.0
67,Uriarte,-58.42301703423355,-34.58013577726729,brt,2016.0
68,Sucre,-58.45550749246719,-34.56340961770993,brt,2016.0
69,Darregueyra,-58.423889554848216,-34.579548712739474,brt,2016.0
70,Oro,-58.424780385832946,-34.57898031226003,brt,2016.0
71,Monroe,-58.46022801185113,-34.55797446674086,brt,2016.0
72,Juan B. Justo,-58.426897122043314,-34.577954817402336,brt,2016.0
73,Juramento,-58.456877930604264,-34.56181204949186,brt,2016.0
74,Jorge Newbery,-58.4413300321219,-34.57178171512807,brt,2016.0
75,Roosevelt,-58.46119643962872,-34.55691631412104,brt,2016.0
76,Maure,-58.44220497223638,-34.57131367660797,brt,2016.0
77,Gorostiaga,-58.44294446522835,-34.570943784855196,brt,2016.0
78,Crisólogo Larralde,-58.46835856718664,-34.5487620028816,brt,2015.0
79,Olleros,-58.44456464614872,-34.57013474006004,brt,2016.0
80,Ugarte,-58.46209928213655,-34.55596086711608,brt,2016.0
81,Teodoro García,-58.44635368483186,-34.56924635209861,brt,2016.0
82,Palpa,-58.44674037640462,-34.56905738476997,brt,2016.0
83,Aguilar,-58.4471426320728,-34.56885970698617,brt,2016.0
84,Congreso,-58.46306158067749,-34.55497059319146,brt,2015.0
85,Céspedes,-58.44852462560887,-34.56814151474205,brt,2016.0
86,Zabala,-58.44901674654041,-34.56787655280695,brt,2016.0
87,Virrey Loreto,-58.44992879080452,-34.5673812672342,brt,2016.0
88,Quesada,-58.46404100623434,-34.55400087559077,brt,2015.0
89,Virrey Arredondo,-58.45162516690627,-34.56645907818407,brt,2016.0
90,Virrey del Pino,-58.45251430271486,-34.56597352396303,brt,2016.0
91,Mendoza,-58.457897443995535,-34.56062249520425,brt,2016.0
92,Iberá,-58.46484885317096,-34.553128721143786,brt,2015.0
93,Olazábal,-58.45872350904955,-34.55965706268093,brt,2016.0
94,Blanco Encalada,-58.459542141475936,-34.558726114655705,brt,2016.0
95,Campos Salles,-58.46599397061466,-34.551699965072885,brt,2015.0
96,Manuel Pedraza,-58.46635541358968,-34.551241411888356,brt,2015.0
97,Juana Azurduy,-58.46695315631463,-34.55049951959385,brt,2015.0
98,Núñez,-58.467400899435944,-34.54995266545729,brt,2015.0
99,Manzanares,-58.469318402808014,-34.54756154949889,brt,2015.0
100,Paroissien,-58.4698354723362,-34.54688648117368,brt,2015.0
101,Vilela,-58.470290466236065,-34.54627531264063,brt,2015.0
102,Besares,-58.47080598376418,-34.54558425461056,brt,2015.0
103,Ruiz Huidobro,-58.47132200621357,-34.544895493948154,brt,2015.0
104,Correa,-58.47186347873898,-34.54416416846817,brt,2015.0
105,Urquiza,-58.48238084190409,-34.52634934986436,brt,2015.0
106,Ramallo,-58.47245635968636,-34.54336062794414,brt,2015.0
107,Arias,-58.47301538269386,-34.54260928821719,brt,2015.0
108,Deheza,-58.4735671277122,-34.54188234802239,brt,2015.0
109,Vergara,-58.48292366698233,-34.52537311002033,brt,2015.0
110,Pico,-58.47419809519917,-34.541031879735456,brt,2015.0
111,General Paz,-58.475852058006126,-34.538855741865795,brt,2015.0
112,Laprida,-58.47738270879927,-34.535903124219814,brt,2015.0
113,Alsina,-58.47789846272423,-34.534863536713495,brt,2015.0
114,Álvarez,-58.47835000471642,-34.533963581186995,brt,2015.0
115,Lavalle,-58.47880226950714,-34.533063929640555,brt,2015.0
116,Las Heras,-58.4793220715503,-34.53204590141826,brt,2015.0
117,Güemes,-58.479804097039846,-34.53109606309113,brt,2015.0
118,Melo,-58.480335324148456,-34.53008631745144,brt,2015.0
119,Haedo,-58.48074694009874,-34.529315888572185,brt,2015.0
120,Santa Rosa,-58.48134172375478,-34.528215370077554,brt,2015.0
121,Roca,-58.48186390997722,-34.52728269081479,brt,2015.0
122,San Martín,-58.483489473643814,-34.52436286953625,brt,2015.0
123,Arenales,-58.48400399734493,-34.52342942297777,brt,2015.0
124,Libertad,-58.48449147158165,-34.52252266950599,brt,2015.0
125,Yrigoyen,-58.48504423981228,-34.52144820949722,brt,2015.0
126,Italia,-58.4856297997583,-34.52032700151654,brt,2015.0
127,Malaver,-58.48634903954756,-34.518989409075985,brt,2015.0
128,Tres Cruces,-58.59879603479766,-34.72471266403163,brt,2017.0
129,Carlos Casares,-58.59642280379377,-34.71971865572112,brt,2017.0
130,Marconi,-58.59219280974635,-34.71361898983261,brt,2017.0
131,Cristianía,-58.58689663553153,-34.70838437003428,brt,2017.0
132,Hospital Paroissien,-58.57631205883014,-34.6969771249364,brt,2017.0
133,Pedro León Gallo,-58.57373748031662,-34.69397756541523,brt,2017.0
134,Gral. Madariaga,-58.56948065513926,-34.69064343984134,brt,2017.0
135,Derqui,-58.56443350665832,-34.68765865197023,brt,2017.0
136,Rotonda San Justo,-58.55698284304157,-34.68424436391323,brt,2017.0
137,Dr. Ignacio Arieta,-58.55492714896441,-34.68279137919168,brt,2017.0
138,Centro de Trasbordo González Catán,-58.61645899292687,-34.75939013838763,brt,2017.0
139,Intendente Federico Russo,-58.61442514531727,-34.75445273369226,brt,2017.0
140,Recuero,-58.60893176888263,-34.74500471069509,brt,2017.0
141,Da Vinci,-58.611661439189476,-34.749152678654795,brt,2017.0
142,Salvigny,-58.60622973266442,-34.74091400435765,brt,2017.0
143,P. Luro,-58.60366903308186,-34.73577377947146,brt,2017.0
144,Hospital Materno Infantil,-58.601540379668336,-34.73045751502605,brt,2017.0
145,Guatemala,-58.43002686927646,-34.58185913304692,brt,2011.0
146,Pacífico,-58.42658837245274,-34.577603210015,brt,2011.0
147,Honduras,-58.43473114480781,-34.58536063778866,brt,2011.0
148,Aguirre,-58.44069876343872,-34.5922655366666,brt,2011.0
149,Av. Corrientes,-58.444300296056014,-34.59476518261869,brt,2011.0
150,Murillo,-58.44766512281004,-34.59710855760198,brt,2011.0
151,Av. Honorio Pueyrredón,-58.45203672293043,-34.6001301620002,brt,2011.0
152,Av. San Martín,-58.45843662575572,-34.604486830592634,brt,2011.0
153,Av. Donato Álvarez,-58.46269212805849,-34.60737905331317,brt,2011.0
154,Boyacá,-58.46786590873967,-34.61130046994225,brt,2011.0
155,Artigas,-58.47224809378544,-34.613837568631965,brt,2011.0
156,Av. Nazca,-58.47610929147045,-34.6180853226691,brt,2011.0
157,Concordia,-58.48082279089786,-34.62205944029195,brt,2011.0
158,Chivilcoy,-58.485943342786726,-34.6251362871732,brt,2011.0
159,Av. Segurola,-58.491096328851214,-34.62698079145599,brt,2011.0
160,Carrasco,-58.49484508642206,-34.629514674639246,brt,2011.0
161,Av. Lope de Vega,-58.50097487432102,-34.63216813398419,brt,2011.0
162,Cortina,-58.506711593807296,-34.63432397220794,brt,2011.0
163,Polideportivo Vélez Sarsfield,-58.51381723878393,-34.63345352701354,brt,2011.0
164,Liniers,-58.52590872134148,-34.638246095774555,brt,2011.0
165,Av. Córdoba,-58.438246591259215,-34.5888397020154,brt,2019.0
166,Marcelo T. de Alvear,-58.372529759626374,-34.595643608512134,brt,2017.0
167,Paraguay,-58.37201784423918,-34.59671948511358,brt,2017.0
168,Av. Belgrano,-58.36939442676204,-34.61173981990938,brt,2017.0
169,Av. Córdoba,-58.3713460185739,-34.59798981153855,brt,2017.0
170,Viamonte,-58.37095541238037,-34.59897668450975,brt,2017.0
171,México,-58.36923881508483,-34.61421517180508,brt,2017.0
172,Chile,-58.36917752838542,-34.61540244172519,brt,2017.0
173,Ricardo Rojas,-58.372971682455244,-34.59471875438921,brt,2017.0
174,Tucumán,-58.37065580541339,-34.600160791533014,brt,2017.0
175,Lavalle,-58.37043530416072,-34.6013183105127,brt,2017.0
176,Av. Corrientes,-58.370300913222536,-34.60254712190323,brt,2017.0
177,Sarmiento,-58.370215485964565,-34.603643775435835,brt,2017.0
178,Perón,-58.37011162053717,-34.60494692501471,brt,2017.0
179,Alsina,-58.36944710673697,-34.6098603367112,brt,2017.0
180,Moreno,-58.369432231230945,-34.610573344898626,brt,2017.0
181,Av. Independencia,-58.36911799782243,-34.616595323175034,brt,2017.0
182,Entre Ríos,-58.39199172340015,-34.629552588959776,brt,2013.0
183,Constitución,-58.38092815335976,-34.6276103106284,brt,2013.0
184,Combate de los Pozos,-58.39164467915474,-34.62724044865389,brt,2013.0
185,Garrahan,-58.39529019852833,-34.63017925106682,brt,2013.0
186,Pichincha,-58.3962075148135,-34.62797759232366,brt,2013.0
187,Jujuy,-58.40085793225907,-34.631712173399684,brt,2013.0
188,Jujuy,-58.40086181560996,-34.628663638398166,brt,2013.0
189,La Rioja,-58.40717352383666,-34.63112109223062,brt,2013.0
190,La Rioja,-58.406483464537914,-34.63384227423834,brt,2013.0
191,Brasil,-58.40948808712203,-34.634754221029944,brt,2013.0
192,Sánchez de Loria,-58.4101283847952,-34.63360216580493,brt,2013.0
193,Bathurst,-58.410699278292384,-34.636337002114466,brt,2013.0
194,Boedo,-58.41552153496745,-34.63708566456951,brt,2013.0
195,Larrazábal,-58.457158683926465,-34.686451713188134,brt,2013.0
196,Caseros,-58.41930716045033,-34.64003747467266,brt,2013.0
197,Av. La Plata,-58.42313967302667,-34.643097173178816,brt,2013.0
198,Lisandro de la Torre,-58.46353524512452,-34.69208148568188,brt,2013.0
199,José C. Paz,-58.41423214399377,-34.64505932685932,brt,2013.0
200,Grito de Asencio,-58.41587539230282,-34.647825568939446,brt,2013.0
201,Pompeya,-58.416353080232014,-34.65180384587179,brt,2013.0
202,Piedrabuena,-58.466183745307575,-34.69452766355327,brt,2013.0
203,Sáenz,-58.417442541790024,-34.65510829792544,brt,2013.0
204,Vedia,-58.42178153910588,-34.6564045515883,brt,2013.0
205,Pola,-58.46532091117406,-34.67868271400021,brt,2013.0
206,Bonorino,-58.42630994343031,-34.65856458565249,brt,2013.0
207,Guaminí,-58.46761894971392,-34.695854444112555,brt,2013.0
208,Berg,-58.42927095678286,-34.65994574901688,brt,2013.0
209,Varela,-58.432735339410954,-34.66154003891749,brt,2013.0
210,Lafuente,-58.43707362052615,-34.6635479946232,brt,2013.0
211,General Paz,-58.46980608781956,-34.69784525279242,brt,2013.0
212,Mariano Acosta,-58.44039638424137,-34.66646053102278,brt,2013.0
213,Lacarra,-58.44245148499306,-34.668352823624566,brt,2013.0
214,Parque Roca,-58.44521192967902,-34.67171545876946,brt,2013.0
215,Puente La Noria,-58.46185048253294,-34.7045467451845,brt,2013.0
216,Estadio Parque Roca,-58.44815352744227,-34.676411699258935,brt,2013.0
217,Escalada,-58.45296269975863,-34.68237433258256,brt,2013.0
218,Escalada,-58.46155811429334,-34.67533447778061,brt,2013.0
219,Larrazábal,-58.45749074545826,-34.68628892317645,brt,2013.0
220,José L. Suárez,-58.47809758401414,-34.69007811798246,brt,2013.0
221,Soldado de la Frontera,-58.461188229473365,-34.68985473202467,brt,2013.0
222,Soldado de la Frontera,-58.46106322218229,-34.68991248858697,brt,2013.0
223,Montiel,-58.476846019155275,-34.6889360989254,brt,2013.0
224,Piedrabuena,-58.47567173950824,-34.68787446609324,brt,2013.0
225,Lisandro de la Torre,-58.47227778783157,-34.68481185893205,brt,2013.0
226,Cecilia Grierson,-58.45467500593054,-34.669144468447,brt,2013.0
227,Laguna,-58.44891515806482,-34.664276761238526,brt,2013.0
228,Lafuente,-58.44259248723952,-34.65944997929758,brt,2013.0
229,Varela,-58.43808221323869,-34.65552368903367,brt,2013.0
230,San Lorenzo,-58.434484915159246,-34.65304057836177,brt,2013.0
231,Perito Moreno,-58.43106961170352,-34.65030974469519,brt,2013.0
232,Del Barco Centenera,-58.427990506397435,-34.647587694372405,brt,2013.0
233,Ladines,-58.51536788574974,-34.5903920538441,brt,2016.0
234,Mosconi,-58.511025869033006,-34.59168417096368,brt,2016.0
235,Cubas,-58.50734409870769,-34.593014635285044,brt,2016.0
236,Solano López,-58.49955311991138,-34.59592812341117,brt,2016.0
237,Roffo,-58.49522789002131,-34.596906207285315,brt,2016.0
238,Comunicaciones,-58.491189902573964,-34.59717709389518,brt,2016.0
239,2 de Abril,-58.486821864517054,-34.59746620683019,brt,2016.0
240,Agronomía,-58.48317499750277,-34.59780363442355,brt,2016.0
241,Empedrado,-58.480787530009266,-34.598837092137224,brt,2016.0
242,Argentinos Juniors,-58.47029108897334,-34.60155607326411,brt,2016.0
243,Donato Álvarez,-58.464923346639324,-34.60284535698199,brt,2016.0
244,Pappo Napolitano,-58.45924197611143,-34.604274434067044,brt,2016.0
245,Lavalleja,-58.28455207070337,-34.75234287998794,brt,2019.0
246,Los Andes,-58.308380584556986,-34.71294805497789,brt,2019.0
247,Montevideo,-58.30485286229779,-34.716382498764894,brt,2019.0
248,Cerrito,-58.30368266614799,-34.720155982502625,brt,2019.0
249,Zapiola,-58.302117294634584,-34.72528090700532,brt,2019.0
250,Fornabaio,-58.28410756440148,-34.7529030099642,brt,2019.0
251,Esquiú,-58.28225258403103,-34.75529824421676,brt,2019.0
252,Centro Comercial,-58.278487750402846,-34.76010158101793,brt,2019.0
253,General Savio,-58.27468343009451,-34.76496862629793,brt,2019.0
254,República de Francia,-58.27195374077823,-34.768468357790724,brt,2019.0
255,Hospital el Cruce,-58.26907187028222,-34.77154240323344,brt,2019.0
256,UNAJ,-58.26745130266001,-34.77366008308732,brt,2019.0
257,Cabral,-58.265006089380705,-34.77690908837654,brt,2019.0
258,Yrigoyen,-58.38125439372895,-34.60983470933252,brt,2013.0
259,Alsina,-58.38116544135872,-34.61095992845478,brt,2013.0
260,Córdoba,-58.38184952918952,-34.59940579465848,brt,2013.0
261,Santa Fe,-58.38217025097288,-34.5955870252168,brt,2013.0
262,Marcelo T. de Alvear,-58.38201268675272,-34.59699495248187,brt,2013.0
263,Paraguay,-58.38190740115371,-34.598168552857864,brt,2013.0
264,Teatro Colón,-58.381787986536295,-34.60054531672263,brt,2013.0
265,Obelisco Norte,-58.38171866120352,-34.60188380598754,brt,2013.0
266,Obelisco Sur,-58.381540537529546,-34.60529346116121,brt,2013.0
267,Juan D. Perón,-58.38146603553638,-34.606493901910525,brt,2013.0
268,Mitre,-58.38139926952704,-34.60766782323051,brt,2013.0
269,Belgrano,-58.38107105835384,-34.6133960245679,brt,2013.0
270,Venezuela,-58.38100606183497,-34.61452043072694,brt,2013.0
271,México,-58.380982769803296,-34.61549647211488,brt,2013.0
272,Chile,-58.380931872912754,-34.61674937256953,brt,2013.0
273,Independencia,-58.38088373165348,-34.6178744911944,brt,2013.0
274,Estados Unidos,-58.380841361845796,-34.61887820333129,brt,2013.0
275,Policlínico,-57.9213603898547,-34.92537929594972,light_rail,2013.0
276,Diagonal 73,-57.919112823988954,-34.92003969503036,light_rail,2013.0
277,Periodismo,-57.924089277733955,-34.91237871784125,light_rail,2013.0
278,Medicina,-57.92813105192589,-34.908809057955146,light_rail,2013.0
279,Informática,-57.93774209404758,-34.90319831355811,light_rail,2013.0
280,Arquitectura,-57.94283099323066,-34.904816432544585,light_rail,2013.0
281,La Plata,-57.94977935010645,-34.90403727571648,light_rail,2013.0
282,Delta,-58.576875290048534,-34.41849143823146,light_rail,1995.0
283,Borges,-58.48476960865011,-34.50850101337656,light_rail,1995.0
284,Juan Anchorena,-58.48123050026712,-34.48911429305742,light_rail,1995.0
285,San Isidro R,-58.50869150375196,-34.465198637723965,light_rail,1995.0
286,Marina Nueva,-58.538924107425444,-34.444564575741985,light_rail,1995.0
287,Canal San Fernando,-58.562692563812774,-34.43009697734602,light_rail,1995.0
288,Avenida Maipú,-58.48833930509092,-34.51396688188965,light_rail,1995.0
289,Libertador,-58.4820358629121,-34.50231922553563,light_rail,1995.0
290,Las Barrancas,-58.492868196565766,-34.47243663261384,light_rail,1995.0
291,Punta Chica,-58.52385231417945,-34.45048057403649,light_rail,1995.0
292,San Fernando R,-58.55393106633282,-34.43751984697326,light_rail,1995.0
293,Pedro Arata,-58.47595637891693,-34.59247380996204,commuter_rail,1888.0
294,José Artigas,-58.46629188813788,-34.590103224486505,commuter_rail,1888.0
295,Antonio Devoto,-58.510567128863414,-34.59559809656494,commuter_rail,1888.0
296,Rubén Darío,-58.629269516247525,-34.58755983430422,commuter_rail,1888.0
297,Pablo Podestá,-58.6070959635486,-34.588381035434274,commuter_rail,1888.0
298,José María Bosch,-58.57196036762716,-34.58999939464494,commuter_rail,1888.0
299,Tropezón,-58.55945582381918,-34.5918925837334,commuter_rail,1888.0
300,Lourdes,-58.54698773176212,-34.593782310698984,commuter_rail,1888.0
301,Coronel Lynch,-58.52436298731681,-34.597215074331686,commuter_rail,1888.0
302,Sargento Barrufaldi,-58.65979524475248,-34.562751576161375,commuter_rail,1914.0
303,Doctor Francisco Beiró,-58.493984308207196,-34.593115568471084,commuter_rail,1888.0
304,Jorge Newbery,-58.62060563403004,-34.587872803164366,commuter_rail,1888.0
305,Fernández Moreno,-58.535436421551594,-34.595533368697566,commuter_rail,1888.0
306,El Libertador,-58.503369468826136,-34.59450525500446,commuter_rail,1888.0
307,Martín Coronado,-58.590789477521746,-34.58896764191965,commuter_rail,1888.0
308,Campo de Mayo,-58.68639140708477,-34.5433403609629,commuter_rail,1914.0
309,Teniente Agneta,-58.67844964415859,-34.54911927001957,commuter_rail,1914.0
310,Capitán Lozano,-58.66938096603431,-34.55564347574446,commuter_rail,1914.0
311,Juan B. de La Salle,-58.64516260653486,-34.57364042512949,commuter_rail,1914.0
312,Ejército de los Andes,-58.64034798244912,-34.580178456696686,commuter_rail,1914.0
313,Sargento Cabral,-58.69552742170875,-34.53677047141827,commuter_rail,1974.0
314,Federico Lacroze,-58.45565942781423,-34.586768592215094,commuter_rail,1888.0
315,General Lemos,-58.70083969458822,-34.532927904895736,commuter_rail,1974.0
316,Villa Crespo,-58.4467196357067,-34.59259952085958,commuter_rail,2023.0
317,Villa del Parque,-58.49405093551699,-34.60140000640861,commuter_rail,1907.0
318,Devoto,-58.51278311038524,-34.6026774308495,commuter_rail,1889.0
319,Palermo,-58.426390831929275,-34.57838593213791,commuter_rail,1888.0
320,Sáenz Peña,-58.52794150756155,-34.60319649814653,commuter_rail,1907.0
321,Hurlingham,-58.63240660631219,-34.59105312481854,commuter_rail,1893.0
322,Bella Vista,-58.684692383599014,-34.563791402438746,commuter_rail,1891.0
323,José C. Paz,-58.75028750659715,-34.519063958620514,commuter_rail,1906.0
324,Caseros,-58.56448722086817,-34.6045728428943,commuter_rail,1888.0
325,Retiro,-58.37323920705825,-34.58931332486238,commuter_rail,1912.0
326,Sol y Verde,-58.79770741745364,-34.50398446177167,commuter_rail,2009.0
327,Villa Astolfi,-58.87695810306832,-34.47866590632948,commuter_rail,1950.0
328,Santos Lugares,-58.540806312897075,-34.60368537708252,commuter_rail,1906.0
329,El Palomar,-58.596136274200234,-34.60492999948794,commuter_rail,1908.0
330,William Morris,-58.656340337710944,-34.57859668331388,commuter_rail,1958.0
331,San Miguel,-58.713450493044704,-34.544056513817026,commuter_rail,1896.0
332,Dr. Domingo Cabred,-59.07589661536693,-34.487935430008555,commuter_rail,2014.0
333,Muñiz,-58.703584942236546,-34.551164491818,commuter_rail,1888.0
334,Presidente Derqui,-58.83935121392551,-34.490702592376834,commuter_rail,1901.0
335,Pilar,-58.908258951896755,-34.4686892399815,commuter_rail,1888.0
336,Manzanares,-59.00731160531612,-34.45253217347174,commuter_rail,2014.0
337,La Paternal,-58.4667363245745,-34.596860417650106,commuter_rail,2022.0
338,Matheu,-58.82981557912791,-34.38280507645203,commuter_rail,1898.0
339,Maquista Savio,-58.772075237895976,-34.40684888674553,commuter_rail,1960.0
340,Garín,-58.73659850841753,-34.4216064313159,commuter_rail,1892.0
341,López Camelo,-58.67752239969795,-34.44685342495952,commuter_rail,1892.0
342,El Talar,-58.646246262740334,-34.46268930950894,commuter_rail,1892.0
343,Dr. Schweitzer,-58.574361311150504,-34.47204842465907,commuter_rail,1892.0
344,Kilómetro 83,-58.97729964261421,-34.16026438692362,commuter_rail,1876.0
345,Ingeniero Otamendi,-58.89661300253188,-34.22183046710947,commuter_rail,1876.0
346,Zárate,-59.03803234956308,-34.0975461818748,commuter_rail,1876.0
347,Campana,-58.95855156888541,-34.15675014890851,commuter_rail,1876.0
348,Río Luján,-58.890227072998314,-34.277961474673276,commuter_rail,1876.0
349,Ingeniero Maschwitz,-58.73634250460428,-34.3829657745293,commuter_rail,1876.0
350,General Pacheco,-58.62013545863971,-34.45581507422111,commuter_rail,1876.0
351,Escobar,-58.79508535118474,-34.34957379147659,commuter_rail,1877.0
352,Benavídez,-58.684631534608144,-34.4092627649876,commuter_rail,1876.0
353,Bancalari,-58.602889656187685,-34.47970468770192,commuter_rail,1876.0
354,Tigre,-58.58171275303463,-34.42351268603137,commuter_rail,1996.0
355,Retiro,-58.37514493655707,-34.59104511969873,commuter_rail,1915.0
356,Victoria,-58.540477452948,-34.45646342393778,commuter_rail,1892.0
357,La Lucila,-58.48858279198403,-34.49750237207516,commuter_rail,1933.0
358,Virreyes,-58.5514900930702,-34.45008182738517,commuter_rail,1938.0
359,Beccar,-58.52636847649552,-34.46091671969247,commuter_rail,1933.0
360,Acassuso,-58.50386123206306,-34.47996638351663,commuter_rail,1933.0
361,Rivadavia,-58.4681787929528,-34.53617656158421,commuter_rail,1863.0
362,Dr. Cetrángolo,-58.49413315955759,-34.52315546329811,commuter_rail,1951.0
363,Carupá,-58.56840618844481,-34.43675309925232,commuter_rail,1865.0
364,San Fernando,-58.558649583389354,-34.44432274555412,commuter_rail,1864.0
365,Victoria,-58.540918513292894,-34.45617535931494,commuter_rail,1891.0
366,San Isidro,-58.513936373131216,-34.4716291326955,commuter_rail,1864.0
367,Martínez,-58.49718558136941,-34.48798984234243,commuter_rail,1871.0
368,Olivos,-58.48033959005028,-34.50841016031651,commuter_rail,1864.0
369,Vicente López,-58.47313788936367,-34.524026765181205,commuter_rail,1864.0
370,Núñez,-58.46268736933921,-34.54859200387331,commuter_rail,1873.0
371,José León Suárez,-58.576721250904924,-34.534179208146746,commuter_rail,1932.0
372,Villa Ballester,-58.55599642007677,-34.55103301288711,commuter_rail,1895.0
373,San Andrés,-58.540610225411214,-34.56360839269826,commuter_rail,1876.0
374,General Urquiza,-58.48783854844416,-34.574722388403174,commuter_rail,1889.0
375,Miguelete,-58.51619833150163,-34.58120662806738,commuter_rail,1876.0
376,Chilavert,-58.56692598732724,-34.54218999646124,commuter_rail,1876.0
377,Malaver,-58.547853459815954,-34.55743983707977,commuter_rail,1876.0
378,San Martín,-58.53170963211113,-34.57361661367066,commuter_rail,1876.0
379,Dr. Luis María Drago,-58.478940978859015,-34.56839890311198,commuter_rail,1933.0
380,Pueyrredón,-58.501744447282434,-34.580490368897316,commuter_rail,1876.0
381,Belgrano R,-58.46244866802037,-34.56782580909735,commuter_rail,1876.0
382,Ministro Carranza,-58.43440756845926,-34.57546328245298,commuter_rail,1876.0
383,Luis María Saavedra,-58.4870240652031,-34.554113120333,commuter_rail,1891.0
384,Florida,-58.494407341161974,-34.52951519115182,commuter_rail,1891.0
385,Colegiales,-58.448181541649134,-34.57302795860363,commuter_rail,1898.0
386,3 de Febrero,-58.42518865357626,-34.571866460022555,commuter_rail,1915.0
387,Coghlan,-58.475119366528716,-34.565330389464116,commuter_rail,1891.0
388,Juan B. Justo,-58.49470616069202,-34.54231947685408,commuter_rail,1931.0
389,Bartolomé Mitre,-58.48906773797644,-34.514830374547785,commuter_rail,1891.0
390,Zelaya,-58.869481040501555,-34.370124230648045,commuter_rail,1892.0
391,Capilla del Señor,-59.10246403117114,-34.286336445375085,commuter_rail,1892.0
392,Los Cardales,-58.98748688672295,-34.33089184965772,commuter_rail,1903.0
393,Lisandro de la Torre,-58.43586480272448,-34.562590632309075,commuter_rail,2019.0
394,Belgrano C,-58.44947362974356,-34.55853930971004,commuter_rail,2019.0
395,Liniers,-58.52591439391439,-34.63883348270534,commuter_rail,1872.0
396,General Rodríguez,-58.95299060671233,-34.60888282930599,commuter_rail,1864.0
397,Universidad de Luján,-59.087512336845435,-34.57738339629269,commuter_rail,1984.0
398,Luján,-59.105107975286685,-34.5777572158616,commuter_rail,1864.0
399,Villa Luro,-58.50093520933922,-34.6360996561726,commuter_rail,1911.0
400,Ciudadela,-58.54102017467348,-34.63993871646498,commuter_rail,1910.0
401,Ramos Mejía,-58.56437953838406,-34.640478351185365,commuter_rail,1858.0
402,La Fraternidad,-58.99803443020518,-34.598363291984604,commuter_rail,1864.0
403,Lezica y Torrezuri,-59.05695181147529,-34.584571446866384,commuter_rail,1864.0
404,Jáuregui,-59.173629317695344,-34.60066158855176,commuter_rail,1884.0
405,Olivera,-59.25540166888413,-34.62794644901348,commuter_rail,1864.0
406,Gowland,-59.352999210596764,-34.647840937807686,commuter_rail,1888.0
407,Empalme Lobos,-59.0909857215718,-35.151617741784996,commuter_rail,1871.0
408,Lobos,-59.09275976862641,-35.18479593181276,commuter_rail,1871.0
409,Mercedes,-59.4322410741576,-34.65767723652789,commuter_rail,1864.0
410,Zapiola,-59.04200742416698,-35.05844298767401,commuter_rail,1871.0
411,Speratti,-58.99966737379468,-35.001839556927145,commuter_rail,1871.0
412,Las Heras,-58.94454051154989,-34.92802576364565,commuter_rail,1871.0
413,Hornos,-58.917896239352785,-34.892324526753015,commuter_rail,1884.0
414,Zamudio,-58.89221820344302,-34.857899336903984,commuter_rail,1871.0
415,Marcos Paz,-58.83658108441683,-34.7830922609435,commuter_rail,1870.0
416,Mariano Acosta,-58.79302331811266,-34.72439730357695,commuter_rail,1910.0
417,Agustín Ferrari,-58.77941460111991,-34.706056388567646,commuter_rail,1870.0
418,"Kilómetro 34,5",-58.76019398001776,-34.68011411629455,commuter_rail,1870.0
419,Francisco Álvarez,-58.85527005113873,-34.63224282017066,commuter_rail,1923.0
420,Once de Septiembre,-58.407458917977785,-34.608442109412735,commuter_rail,1857.0
421,Flores,-58.46567577462284,-34.62772965886758,commuter_rail,1857.0
422,Floresta,-58.48140451731811,-34.632537259651876,commuter_rail,1857.0
423,Caballito,-58.44360455181172,-34.619165527052246,commuter_rail,1857.0
424,Morón,-58.619411380126536,-34.648240798820055,commuter_rail,1859.0
425,Castelar,-58.641987610903655,-34.65198957555494,commuter_rail,1913.0
426,Ituzaingó,-58.6665748058772,-34.65974435830555,commuter_rail,1872.0
427,San Antonio de Padua,-58.698648710397606,-34.665538575090004,commuter_rail,1923.0
428,Merlo,-58.727771096738635,-34.66453449307908,commuter_rail,1860.0
429,Paso del Rey,-58.762100564759,-34.6582261436864,commuter_rail,1938.0
430,Moreno,-58.78984300424283,-34.65051366622797,commuter_rail,1860.0
431,Haedo,-58.592022161946765,-34.64459182334102,commuter_rail,1886.0
432,Ingeniero Pablo Marín,-58.89336111638106,-34.62277142513053,commuter_rail,1864.0
433,Las Malvinas,-58.92172875962336,-34.61617176687064,commuter_rail,1864.0
434,Retiro,-58.37409101496387,-34.59010547199625,commuter_rail,1912.0
435,Tierras Altas,-58.740085492652696,-34.47871145589271,commuter_rail,1988.0
436,Del Viso,-58.79680746733092,-34.45337720116645,commuter_rail,1909.0
437,Pablo Nogués,-58.70636287964814,-34.49374498593186,commuter_rail,1909.0
438,Vicealmirante Montes,-58.62002827614231,-34.504130038765474,commuter_rail,1909.0
439,Villa de Mayo,-58.680682343997105,-34.50337256690854,commuter_rail,1913.0
440,Don Torcuato,-58.641841163057094,-34.50269282781579,commuter_rail,1909.0
441,Villa Adelina,-58.546218863697405,-34.52368098206969,commuter_rail,1909.0
442,Munro,-58.52431437541503,-34.53144279892901,commuter_rail,1912.0
443,Villa Rosa,-58.8716377860887,-34.41651966954878,commuter_rail,1909.0
444,Manuel Alberti,-58.7750438124681,-34.4631089035375,commuter_rail,1965.0
445,Tortuguitas,-58.7579569701048,-34.470735835202454,commuter_rail,1947.0
446,Grand Bourg,-58.72519461390844,-34.4853483047726,commuter_rail,1909.0
447,Los Polvorines,-58.694772853012594,-34.4989166022358,commuter_rail,1909.0
448,Adolfo Sourdeaux,-58.66644695008851,-34.50299514623151,commuter_rail,1955.0
449,Boulogne Sur Mer,-58.564858738663006,-34.508964593650965,commuter_rail,1909.0
450,Carapachay,-58.53771913032446,-34.52875775371225,commuter_rail,1930.0
451,Florida,-58.5130719407167,-34.537149035100036,commuter_rail,1912.0
452,Miguel Manuel Padilla,-58.50063414167728,-34.54345660674089,commuter_rail,1912.0
453,Ciudad Universitaria,-58.446555035507004,-34.5438041563882,commuter_rail,2015.0
454,Aristóbulo del Valle,-58.47730777209719,-34.5372667144452,commuter_rail,1912.0
455,Panamericana,-58.82412018248861,-34.43922054868512,commuter_rail,
456,Empalme Lobos,-59.0909857215718,-35.151617741784996,commuter_rail,1871.0
457,Lobos,-59.09275976862641,-35.18479593181276,commuter_rail,1871.0
458,Hipólito Yrigoyen,-58.378910855852176,-34.65360371878185,commuter_rail,1866.0
459,Plaza Constitución,-58.38062624485009,-34.628833068093485,commuter_rail,1865.0
460,Temperley,-58.396285198710885,-34.776039053499844,commuter_rail,1871.0
461,Lomas de Zamora,-58.39729288188354,-34.76104576602497,commuter_rail,1865.0
462,Alejandro Korn,-58.373750573612114,-34.981023992470654,commuter_rail,1865.0
463,Tolosa,-57.96807874006787,-34.89098614500584,commuter_rail,1883.0
464,Darío Santillán y Maximiliano Kosteki,-58.37664905365066,-34.66204168487568,commuter_rail,1865.0
465,Sarandí,-58.345115463198084,-34.678839469087265,commuter_rail,1872.0
466,Gerli,-58.38274732926794,-34.68609520500135,commuter_rail,1910.0
467,Lanús,-58.390675888209074,-34.70764384645708,commuter_rail,1868.0
468,Remedios de Escalada,-58.393636887634294,-34.72705391886952,commuter_rail,1868.0
469,Banfield,-58.39534456856584,-34.74318018642511,commuter_rail,1873.0
470,Guernica,-58.38057801248314,-34.91795084623992,commuter_rail,1888.0
471,La Plata,-57.94997257822797,-34.90416075437674,commuter_rail,1906.0
472,Adrogué,-58.394279242359175,-34.79740623023402,commuter_rail,1872.0
473,Burzaco,-58.39139403874837,-34.825075966749814,commuter_rail,1888.0
474,Longchamps,-58.387227717674264,-34.85960708800601,commuter_rail,1910.0
475,Glew,-58.38378608752277,-34.88831199505677,commuter_rail,1865.0
476,Donselaar,-58.290420533562084,-35.070348607730274,commuter_rail,1865.0
477,Coronel Brandsen,-58.23188127013695,-35.16801173513268,commuter_rail,1865.0
478,Altamirano,-58.15125121921244,-35.36109045557809,commuter_rail,1865.0
479,Gándara,-58.09401077910698,-35.44944889507488,commuter_rail,1865.0
480,Chascomús,-57.98242164894312,-35.57899825353,commuter_rail,1865.0
481,Jeppener,-58.1982197824545,-35.27761940603295,commuter_rail,1865.0
482,Ezpeleta,-58.234117621192695,-34.75191455724391,commuter_rail,1889.0
483,Berazategui,-58.20875703066591,-34.76397968363534,commuter_rail,1872.0
484,Plátanos,-58.17083319375679,-34.782320568782296,commuter_rail,1872.0
485,Hudson,-58.15552627793119,-34.79099611919698,commuter_rail,1872.0
486,Villa Elisa,-58.07501594887336,-34.84970369874253,commuter_rail,1884.0
487,City Bell,-58.0444818061637,-34.86457482538544,commuter_rail,1914.0
488,Manuel B. Gonnet,-58.01055656094972,-34.87994247070761,commuter_rail,1889.0
489,Ringuelet,-57.996242216666346,-34.88148520896717,commuter_rail,1886.0
490,Pereyra,-58.094665070145645,-34.83655981828059,commuter_rail,1872.0
491,Villa Domínico,-58.325423853216975,-34.69147810684601,commuter_rail,1909.0
492,Wilde,-58.31119561302967,-34.697567900218665,commuter_rail,1888.0
493,Don Bosco,-58.29626879658515,-34.70331897060207,commuter_rail,1927.0
494,Bernal,-58.28043154278262,-34.70935877428989,commuter_rail,1878.0
495,Quilmes,-58.26086720125474,-34.724392110035154,commuter_rail,1872.0
496,Monte Grande,-58.46972388751297,-34.814502866959415,commuter_rail,1913.0
497,Luis Guillón,-58.44854746509459,-34.80326496824997,commuter_rail,1885.0
498,Lavallol,-58.430091295765735,-34.79714557660003,commuter_rail,1885.0
499,Turdera,-58.408065765726434,-34.79511175992314,commuter_rail,1885.0
500,Intendente Pedro P. Turner,-58.47466231972548,-34.73339133111717,commuter_rail,1971.0
501,Villa España,-58.19527064819597,-34.77505711420906,commuter_rail,1911.0
502,Cañuelas,-58.754449921654526,-35.05939749536497,commuter_rail,1885.0
503,Dr. Ricardo Levene,-58.72396897714334,-35.021791014391376,commuter_rail,1885.0
504,Kloosterman,-58.68979890030117,-34.98642546443428,commuter_rail,1885.0
505,Zeballos,-58.25672746712864,-34.81099763270648,commuter_rail,1911.0
506,Alejandro Petión,-58.67464003739515,-34.9776492535802,commuter_rail,1885.0
507,Vicente Casares,-58.64792925722247,-34.962260395403455,commuter_rail,1885.0
508,Bosques,-58.23044609441553,-34.819478731275886,commuter_rail,1883.0
509,Máximo Paz,-58.620585908934515,-34.936378168126005,commuter_rail,1885.0
510,Carlos Spegazzini,-58.594278924679585,-34.909961720987226,commuter_rail,1885.0
511,Tristán Suárez,-58.56790307949878,-34.88938404895361,commuter_rail,1885.0
512,Agustín De Elía,-58.505939045111035,-34.70992995864605,commuter_rail,1875.0
513,Unión Ferroviaria,-58.543396776717685,-34.87024307632745,commuter_rail,1885.0
514,Ingeniero Dante Ardigó,-58.302541662661525,-34.808889393768126,commuter_rail,1970.0
515,Ezeiza,-58.52281748016533,-34.85414337625113,commuter_rail,1885.0
516,El Jagüel,-58.4962527615793,-34.83333721140208,commuter_rail,1965.0
517,Florencio Varela,-58.27409781630274,-34.811142045438814,commuter_rail,1883.0
518,La Tablada,-58.5281626494034,-34.692982074611095,commuter_rail,1875.0
519,Claypole,-58.33811186841868,-34.80120695642858,commuter_rail,1883.0
520,Rafael Calzada,-58.35905267749277,-34.796718089803726,commuter_rail,1883.0
521,San Justo,-58.555621544459214,-34.67399599761981,commuter_rail,1886.0
522,Sourigues,-58.213076158264855,-34.80715481127373,commuter_rail,1939.0
523,José Mármol,-58.38129976634288,-34.79190821226856,commuter_rail,1875.0
524,Ranelagh,-58.20324291019966,-34.78942431502421,commuter_rail,1911.0
525,Hospital Español,-58.40752058219027,-34.78621734530725,commuter_rail,1940.0
526,Santa Catalina,-58.43749473674373,-34.78021753317704,commuter_rail,1875.0
527,Juan XXIII,-58.44410041194821,-34.77138788295507,commuter_rail,1932.0
528,Kilómetro 34,-58.46504771378565,-34.74341199822329,commuter_rail,1963.0
529,Ingeniero Santiago Brian,-58.57290169793809,-34.658195887550875,commuter_rail,1886.0
530,Haedo,-58.591892951819176,-34.645002156894044,commuter_rail,1886.0
531,Juan María Gutiérrez,-58.18560337676169,-34.83401925541962,commuter_rail,1883.0
532,Santa Sofía,-58.21340066157694,-34.82500929721735,commuter_rail,1883.0
533,Uribelarrea,-58.8984450120404,-35.11538685901585,commuter_rail,2019.0
534,Monte,-58.81757027465409,-35.436684695317545,commuter_rail,2019.0
535,Abbott,-58.80284292125134,-35.281313176757905,commuter_rail,2019.0
536,La Noria,-58.78816981687336,-35.16524555083791,commuter_rail,2019.0
537,Villa Madero,-58.49167724457622,-34.6838985994516,commuter_rail,1908.0
538,Villa Soldati,-58.44092041491918,-34.66223084267463,commuter_rail,1908.0
539,Marinos del Crucero General Belgrano,-58.73160583089232,-34.709080686485635,commuter_rail,1985.0
540,González Catán,-58.64678773823722,-34.77166082327382,commuter_rail,1908.0
541,Tapiales,-58.51166240132703,-34.70241880570872,commuter_rail,1908.0
542,Mendeville,-58.52436566958596,-34.712418455440655,commuter_rail,1909.0
543,José Ingenieros,-58.537148686402105,-34.710792647163814,commuter_rail,1909.0
544,Marinos del Fournier,-58.50745582749913,-34.69012298504579,commuter_rail,1908.0
545,Aldo Bonzi,-58.5144026262588,-34.710773087297184,commuter_rail,1909.0
546,J. Villegas,-58.55191702046102,-34.70899020697014,commuter_rail,1909.0
547,Lugano,-58.47702183523228,-34.67720767296419,commuter_rail,1909.0
548,Isidro Casanova,-58.58752216490387,-34.70454520559398,commuter_rail,1909.0
549,Rafael Castillo,-58.62628252101021,-34.699701313567644,commuter_rail,1909.0
550,Merlo Gómez,-58.647553362963635,-34.69703510516275,commuter_rail,1909.0
551,Presidente Illia,-58.44889989569443,-34.66557197300914,commuter_rail,1908.0
552,María Eva Duarte,-58.60171300604152,-34.75640229925038,commuter_rail,1999.0
553,Laferrere,-58.58451967443341,-34.75082329156669,commuter_rail,1913.0
554,Libertad,-58.68649002884753,-34.69214197995113,commuter_rail,1909.0
555,Ingeniero Castello,-58.50596560810419,-34.71027295008304,commuter_rail,1908.0
556,Querandí,-58.53050505846568,-34.722287439099276,commuter_rail,1908.0
557,Independencia,-58.61559895579296,-34.76033724222252,commuter_rail,1981.0
558,Buenos Aires,-58.38991693762907,-34.64600661996504,commuter_rail,999999.0
559,Constitución,-58.3811065645115,-34.63066349036034,commuter_rail,999999.0
560,Dr. A. Sáenz,-58.41633944216629,-34.64909751090013,commuter_rail,2019.0
561,20 de Junio,-58.73797901744153,-34.780221943650254,commuter_rail,2019.0
562,La Reja,-58.82854687000096,-34.63971025950985,None,1864.0
