nodeID,nodeLabel,latitude,longitude,mode,year
0,Babinière Sud,-1.540558523699076,47.25613234724892,light_rail,2019.0
1,Halvêque,-1.520452,47.2572683,light_rail,1989.0
2,Gare SNCF Nord,-1.5423976,47.2178543,light_rail,1985.0
3,Ranzay,-1.5303578,47.2532428,light_rail,2012.0
4,Haluchère-Batignolles,-1.5223692,47.2488449,light_rail,2012.0
5,Hôpital Bellier,-1.5245255,47.2211974,light_rail,1985.0
6,Pin Sec,-1.5180544,47.2435643,light_rail,1985.0
7,Beaujoire,-1.5259933,47.2588237,light_rail,1989.0
8,Souillarderie,-1.5160712,47.2382914,light_rail,1985.0
9,Halvêque,-1.5204882,47.2572768,light_rail,1989.0
10,Moutonnerie,-1.5331341,47.2195619,light_rail,1985.0
11,Landreau,-1.516109,47.2323156,light_rail,1985.0
12,Boulevard de Doulon,-1.5200339,47.224447,light_rail,1985.0
13,Manufacture,-1.5373749,47.21877,light_rail,1985.0
14,Bouffay,-1.5523589,47.214594,light_rail,1985.0
15,Gare SNCF Nord,-1.5424016,47.2178802,light_rail,1985.0
16,Commerce,-1.5560344,47.2135612,light_rail,1985.0
17,Commerce,-1.556054,47.2135881,light_rail,1985.0
18,Gare Maritime,-1.5731154,47.2070546,light_rail,1985.0
19,Mairie de Doulon,-1.5186817,47.2268604,light_rail,0.0
20,Beaujoire,-1.5259974,47.2587969,light_rail,1989.0
21,Landreau,-1.5161476,47.2323215,light_rail,1985.0
22,Boulevard de Doulon,-1.5199951,47.2244406,light_rail,1985.0
23,Ranzay,-1.530349,47.2532682,light_rail,2012.0
24,Haluchère-Batignolles,-1.5229081,47.2491427,light_rail,2012.0
25,Pin Sec,-1.5180951,47.2435588,light_rail,1985.0
26,Bouffay,-1.5523453,47.2145651,light_rail,1985.0
27,Souillarderie,-1.5160372,47.2382967,light_rail,1985.0
28,Hôpital Bellier,-1.5245007,47.2211736,light_rail,1985.0
29,Beaujoire,-1.5245783,47.2588182,light_rail,1989.0
30,Chantiers Navals,-1.56757,47.2088876,light_rail,1985.0
31,Duchesse Anne - Château,-1.547301,47.216242,light_rail,1985.0
32,Médiathèque,-1.5608806,47.2111448,light_rail,1985.0
33,Moutonnerie,-1.5331469,47.2195909,light_rail,1985.0
34,Manufacture,-1.5373632,47.2187475,light_rail,1985.0
35,Duchesse Anne - Château,-1.5473212,47.2162654,light_rail,1985.0
36,Médiathèque,-1.5608619,47.2111213,light_rail,1985.0
37,Chantiers Navals,-1.567552,47.2088633,light_rail,1985.0
38,Égalité,-1.5886318,47.2093441,light_rail,1985.0
39,Du Chaffault,-1.5818067,47.207577,light_rail,1985.0
40,Croix Bonneau,-1.5954404,47.2096313,light_rail,2000.0
41,Mendès France - Bellevue,-1.6114847,47.2087267,light_rail,1985.0
42,Romain Rolland,-1.6097185,47.2067013,light_rail,2000.0
43,Mairie de Doulon,-1.5186443,47.2268522,light_rail,1985.0
44,Gare Maritime,-1.5731296,47.2070848,light_rail,1985.0
45,Schœlcher,-1.6280357,47.220524,light_rail,2000.0
46,Du Chaffault,-1.5818224,47.2075514,light_rail,1985.0
47,Jean Moulin,-1.6002397,47.2069495,light_rail,2000.0
48,Égalité,-1.5886155,47.2093675,light_rail,1985.0
49,Croix Bonneau,-1.5954459,47.2096611,light_rail,2000.0
50,Romanet,-1.6090278,47.2116828,light_rail,2000.0
51,Mendès France - Bellevue,-1.6115233,47.2087383,light_rail,1985.0
52,Romain Rolland,-1.6097724,47.2066579,light_rail,2000.0
53,Tourmaline,-1.6326555,47.2214339,light_rail,2000.0
54,Lauriers,-1.6049684,47.2047949,light_rail,2000.0
55,Neruda,-1.6137088,47.2176442,light_rail,2000.0
56,Frachon,-1.6205809,47.2190736,light_rail,2000.0
57,François Mitterrand,-1.6382404,47.2220783,light_rail,2000.0
58,Tertre,-1.6081559,47.2145715,light_rail,2000.0
59,Lauriers,-1.6050016,47.2047466,light_rail,2000.0
60,François Mitterrand,-1.6382339,47.2221129,light_rail,2000.0
61,Jean Moulin,-1.6002711,47.2069704,light_rail,2000.0
62,Schœlcher,-1.6280205,47.2205559,light_rail,2000.0
63,Tertre,-1.6081158,47.2145942,light_rail,2000.0
64,Romanet,-1.6090651,47.2116944,light_rail,2000.0
65,Neruda,-1.6137243,47.2176187,light_rail,2000.0
66,Frachon,-1.620567,47.2191005,light_rail,2000.0
67,Tourmaline,-1.6326468,47.2214632,light_rail,2000.0
68,Égalité,-1.587795928106715,47.209040024359325,light_rail,1985.0
69,Jamet,-1.602940490791354,47.210043465030054,light_rail,2007.0
70,Saint-Mihiel,-1.5534239,47.2233118,light_rail,1994.0
71,Motte Rouge,-1.5541112,47.2278199,light_rail,1994.0
72,Place du Cirque,-1.5570584,47.216823,light_rail,1992.0
73,Place du Cirque,-1.557018,47.2168328,light_rail,1992.0
74,Saint-Félix,-1.5565791,47.2313874,light_rail,1994.0
75,Cinquante Otages,-1.5557777,47.2199823,light_rail,1992.0
76,Cinquante Otages,-1.5558123,47.2200009,light_rail,1992.0
77,Saint-Mihiel,-1.5533813,47.2233138,light_rail,1994.0
78,Facultés,-1.5552061,47.2457374,light_rail,1994.0
79,Motte Rouge,-1.5541378,47.2278446,light_rail,1994.0
80,Recteur Schmitt,-1.5528849,47.2520393,light_rail,1994.0
81,Boissière,-1.565855,47.255098,light_rail,1994.0
82,Facultés,-1.5552345,47.245761,light_rail,1994.0
83,Michelet Sciences,-1.5566101,47.2351732,light_rail,1994.0
84,Recteur Schmitt,-1.5528665,47.2520596,light_rail,1994.0
85,Bourgeonnière,-1.5597979,47.2532522,light_rail,1994.0
86,Bourgeonnière,-1.559808,47.253192,light_rail,1994.0
87,Le Cardo,-1.5842318,47.2618076,light_rail,1994.0
88,Orvault Grand Val,-1.5921889,47.261861,light_rail,1994.0
89,Boissière,-1.5659419,47.2550907,light_rail,1994.0
90,Michelet Sciences,-1.5565715,47.2351724,light_rail,1994.0
91,Morrhonnière Petit Port,-1.5564799,47.2414965,light_rail,1994.0
92,École Centrale Audencia,-1.5512162,47.2486403,light_rail,1994.0
93,École Centrale Audencia,-1.5512448,47.2486526,light_rail,1994.0
94,Chêne des Anglais,-1.573276,47.2614401,light_rail,1994.0
95,Santos Dumont,-1.5681223,47.2594852,light_rail,1994.0
96,Chêne des Anglais,-1.5732797,47.2614112,light_rail,1994.0
97,Orvault Grand Val,-1.5921998,47.2618298,light_rail,1994.0
98,Saint-Félix,-1.5564919,47.2313874,light_rail,1994.0
99,Morrhonnière Petit Port,-1.5564439,47.2414944,light_rail,1994.0
100,René Cassin,-1.5761902,47.2642009,light_rail,1994.0
101,Santos Dumont,-1.5681639,47.2594664,light_rail,1994.0
102,René Cassin,-1.5761958,47.2642295,light_rail,1994.0
103,Le Cardo,-1.5842579,47.2618281,light_rail,1994.0
104,Gare de Pont-Rousseau,-1.5490435,47.1929443,light_rail,2007.0
105,Gare de Pont-Rousseau,-1.5490347,47.19297,light_rail,2007.0
106,Gare de Pont-Rousseau,-1.5490143,47.1930311,light_rail,2007.0
107,Pirmil,-1.5427621,47.1962006,light_rail,1992.0
108,Wattignies,-1.5464695,47.2039729,light_rail,1992.0
109,Pirmil,-1.5427418,47.1961681,light_rail,1992.0
110,Hôtel-Dieu,-1.553317,47.2118608,light_rail,1992.0
111,Commerce,-1.5559482,47.2146437,light_rail,1992.0
112,Hôtel-Dieu,-1.5532795,47.2118736,light_rail,1992.0
113,Aimé Delrue,-1.5502759,47.2091247,light_rail,1992.0
114,Vincent Gâche,-1.5483321,47.2064976,light_rail,1992.0
115,Mangin,-1.5451031,47.2017387,light_rail,1992.0
116,Wattignies,-1.5465108,47.2039569,light_rail,1992.0
117,Mangin,-1.5450604,47.201749,light_rail,1992.0
118,Vincent Gâche,-1.5482949,47.2065144,light_rail,1992.0
119,Aimé Delrue,-1.5502372,47.2091452,light_rail,1992.0
120,Pirmil,-1.54272826318325,47.19619772327462,light_rail,1994.0
121,Commerce,-1.555764394571727,47.21437420494535,light_rail,1992.0
122,8 Mai,-1.551529723402069,47.18934275483403,light_rail,2007.0
123,Bretagne,-1.5584045,47.2172282,light_rail,2000.0
124,Bignon,-1.5978674,47.2492395,light_rail,2009.0
125,Jean Jaurès,-1.5603488,47.2186059,light_rail,2000.0
126,Poitou,-1.5653863,47.2242675,light_rail,2000.0
127,Alexandre Vincent Sainte-Thérèse,-1.577599,47.2328526,light_rail,2000.0
128,Viarme-Talensac,-1.5626702,47.2213549,light_rail,2000.0
129,Poitou,-1.5654719,47.2242474,light_rail,2000.0
130,Plaisance,-1.5912789,47.240168,light_rail,2000.0
131,Félix Faure,-1.5695865,47.2270997,light_rail,2000.0
132,Longchamp,-1.582405,47.2349843,light_rail,2000.0
133,Rond-Point de Vannes,-1.5727424,47.2299239,light_rail,2000.0
134,Ferrière,-1.5916305,47.2432435,light_rail,2009.0
135,Jean Rostand,-1.5938701,47.2460344,light_rail,2009.0
136,Marcel Paul,-1.616285,47.2459428,light_rail,2009.0
137,Orvault Morlière,-1.6033047,47.2469703,light_rail,2009.0
138,Beauséjour,-1.5871848,47.2382112,light_rail,2000.0
139,Marcel Paul,-1.6163266,47.2458998,light_rail,2009.0
140,Jean Jaurès,-1.5603807,47.2185819,light_rail,2000.0
141,Alexandre Vincent Sainte-Thérèse,-1.5776192,47.2328325,light_rail,2000.0
142,Bretagne,-1.5583768,47.2172528,light_rail,2000.0
143,Viarme-Talensac,-1.5626962,47.2213408,light_rail,2000.0
144,Longchamp,-1.5823534,47.2350364,light_rail,2000.0
145,Félix Faure,-1.5695179,47.227138,light_rail,2000.0
146,Plaisance,-1.5912553,47.2401825,light_rail,2000.0
147,Sillon de Bretagne,-1.6086468,47.2456093,light_rail,2009.0
148,Beauséjour,-1.5872074,47.2381886,light_rail,2000.0
149,Ferrière,-1.5915449,47.2432175,light_rail,2009.0
150,Orvault Morlière,-1.6033359,47.2469937,light_rail,2009.0
151,Bignon,-1.5979004,47.2492193,light_rail,2009.0
152,Jean Rostand,-1.5939497,47.2460454,light_rail,2009.0
153,Rond-Point de Vannes,-1.5728681,47.2299459,light_rail,2000.0
154,Sillon de Bretagne,-1.6086233,47.2455819,light_rail,2009.0
155,Neustrie,-1.5927838,47.1772888,light_rail,2007.0
156,Les Couëts,-1.5864833,47.1807902,light_rail,2007.0
157,Trocardière,-1.5700377,47.1832467,light_rail,2007.0
158,Grande Ouche,-1.5794788,47.1813519,light_rail,2007.0
159,Grande Ouche,-1.579476,47.1813195,light_rail,2007.0
160,Neustrie,-1.5927654,47.1772626,light_rail,2007.0
161,Les Couëts,-1.5864471,47.1807296,light_rail,2007.0
162,Commerce,-1.5557642,47.2143743,light_rail,2000.0
163,Trocardière,-1.5700035,47.1831824,light_rail,2007.0
164,Château de Rezé F. Mitterrand,-1.559534460800421,47.18475563719724,light_rail,2007.0
165,Pirmil,-1.542727339132971,47.19619755043193,light_rail,2007.0
166,Wattignies,-1.54648362259573,47.203957993307654,light_rail,2007.0
167,Aimé Delrue,-1.550256827126532,47.20912433899741,light_rail,2007.0
168,Vincent Gâche,-1.548274137846079,47.20647093128508,light_rail,2007.0
169,Commerce,-1.555948483621506,47.21464400558153,light_rail,2000.0
170,Mangin,-1.545060969765643,47.20169900152672,light_rail,2007.0
171,Pont-Rousseau Martyrs,-1.548307035301804,47.19187462621255,light_rail,2007.0
172,Balinière,-1.553929704836662,47.18613438898987,light_rail,2007.0
173,Espace Diderot,-1.562541587815019,47.18444413122879,light_rail,2007.0
174,Hôtel-Dieu,-1.55332134165252,47.21186896146497,light_rail,2000.0
175,Neustrie,-1.592773124327351,47.17727540224871,light_rail,2007.0
176,Cité internationale des congrès,-1.54503636668835,47.21365659152036,brt,2006.0
177,Grèneraie,-1.533558540323014,47.199660542697416,brt,2006.0
178,Tripode,-1.540650577219225,47.20831328590123,brt,2006.0
179,Foch-Cathédrale,-1.550393731348322,47.21931080863018,brt,2006.0
180,Duchesse Anne - Château,-1.546912097127032,47.21614881674303,brt,2006.0
181,Bonne Garde,-1.531269103082167,47.196864772676065,brt,2006.0
182,Beaulieu,-1.537101501676006,47.2039787481574,brt,2006.0
183,Mauvoisins,-1.52555724370248,47.19014778811885,brt,2006.0
184,Clos Toreau,-1.529101056727654,47.19421468785063,brt,2006.0
185,Bourdonnières,-1.52102860159124,47.18722533228356,brt,2006.0
186,Joliverie,-1.517103896268822,47.1896160225009,brt,2006.0
187,Chapeau Verni,-1.511563177964405,47.189251253427386,brt,2006.0
188,Maraîchers,-1.510671807567888,47.1847792351069,brt,2006.0
189,Île de Nantes,-1.538800168818796,47.20604024114607,brt,2006.0
190,Porte de Vertou,-1.505113635652066,47.18085161727572,brt,2006.0
191,Hangar à Bananes,-1.5731291,47.2001991,brt,2020.0
192,Quai des Antilles,-1.5697003,47.2037315,brt,2020.0
193,Quai des Antilles,-1.5695091,47.2037516,brt,2020.0
194,Haubans,-1.5299825,47.214522,brt,2020.0
195,Haubans,-1.529935,47.2144404,brt,2020.0
196,Trentemoult - Roquios,-1.582280925990119,47.19539055841253,default,2005.0
197,Gare Maritime,-1.573041292936494,47.205724045761684,default,2005.0
198,Port Boyer,-1.546003135098289,47.2420259201661,default,1997.0
199,Petit Port Facultés,-1.547543002472111,47.24312959849124,default,1997.0
200,Ponton des Chantiers,-1.569252246344945,47.20637385434526,default,2007.0
201,Pont-Rousseau Martyrs,-1.5482973,47.1918898,default,0.0
202,Pont-Rousseau Martyrs,-1.5482761,47.1918639,default,0.0
203,8 Mai,-1.5515294,47.1893905,default,0.0
204,8 Mai,-1.5514936,47.1893709,default,0.0
205,Dépôt de Doulon,-1.53104469321508,47.22431920684721,default,1879.0
206,Jardin de la Bourse,-1.558841940789478,47.21252814275442,default,1879.0
207,Trentemoult aval,-1.589338136883782,47.193026576369306,default,2022.0
208,Hangar à Bananes,-1.574254226221939,47.19929587141809,default,2020.0
209,Bas Chantenay,-1.592089053889765,47.194630976655816,default,2020.0
210,Bas Chantenay,-1.592089053889765,47.194630976655816,default,2020.0
211,Trentemoult aval,-1.589338136883782,47.193026576369306,default,2022.0
212,Hangar à Bananes,-1.574254226221939,47.19929587141809,default,2020.0
213,Arbre aux Hérons,-1.578381946018794,47.199730595872666,default,2023.0
214,Saint-Sébastien Frêne Rond,-1.4957336,47.1904756,commuter_rail,2011.0
215,Saint-Sébastien Frêne Rond,-1.4956913,47.1904855,commuter_rail,2011.0
216,Vertou,-1.4780014,47.186027,commuter_rail,2011.0
217,Vertou,-1.4780028,47.1860627,commuter_rail,2011.0
218,Saint-Sébastien Pas Enchantés,-1.5109338,47.2068791,commuter_rail,2011.0
219,Le Pallet,-1.3467773,47.1438981,commuter_rail,2011.0
220,Gorges,-1.3058778,47.1001487,commuter_rail,2011.0
221,Gorges,-1.3063199,47.1004853,commuter_rail,2011.0
222,Clisson,-1.2865709,47.0859244,commuter_rail,2011.0
223,La Haie Fouassière,-1.3922549,47.1615314,commuter_rail,2011.0
224,La Haie Fouassière,-1.3922501,47.1615648,commuter_rail,2011.0
225,Le Pallet,-1.3468028,47.1438784,commuter_rail,2011.0
226,Clisson,-1.2865357,47.0859464,commuter_rail,2011.0
227,Saint-Sébastien Pas Enchantés,-1.5109766,47.2068637,commuter_rail,2011.0
228,Haluchère-Batignolles,-1.5222901,47.2489129,commuter_rail,2014.0
229,Haluchère-Batignolles,-1.522776,47.2492415,commuter_rail,2014.0
230,Nantes,-1.5404493,47.2178317,commuter_rail,2014.0
231,Sucé-sur-Erdre,-1.5303495,47.3430003,commuter_rail,2014.0
232,Issé,-1.4508732,47.6268488,commuter_rail,2014.0
233,Nort-sur-Erdre,-1.5033523,47.4419222,commuter_rail,2014.0
234,Babinière,-1.5449184,47.258815,commuter_rail,2014.0
235,Babinière,-1.5449735,47.2587996,commuter_rail,2014.0
236,Erdre Active,-1.5446818,47.2830058,commuter_rail,2014.0
237,Nort-sur-Erdre,-1.5034037,47.4419237,commuter_rail,2014.0
238,Erdre Active,-1.5446393,47.2830213,commuter_rail,2014.0
239,Abbaretz,-1.5244159,47.5546432,commuter_rail,2014.0
240,La Chapelle - Aulnay,-1.5414844,47.3087224,commuter_rail,2014.0
241,Châteaubriant Tram-Train,-1.3714532,47.7170797,commuter_rail,2014.0
242,Issé,-1.4509282,47.6268994,commuter_rail,2014.0
243,Châteaubriant Tram-Train,-1.3713826,47.7170764,commuter_rail,2014.0
244,Nantes,-1.54139,47.2168854,None,0.0
245,Nantes,-1.5404384,47.2178008,None,0.0
246,Nantes,-1.5404095,47.2177196,None,0.0
247,Nantes,-1.5414038,47.2169146,None,0.0
248,Nantes,-1.5403989,47.2176897,None,0.0
249,Nantes,-1.541609,47.2173487,None,0.0
250,Nantes,-1.5414456,47.2170031,None,0.0
251,Nantes,-1.54146,47.2170336,None,0.0
252,Nantes,-1.5415196,47.2171595,None,0.0
253,Nantes,-1.541537,47.2171964,None,0.0
254,Nantes,-1.5416235,47.2173794,None,0.0
255,Nantes,-1.5413381,47.2167598,None,0.0
256,La Chapelle-sur-Erdre Centre,-1.5480508,47.2975954,None,0.0
257,La Chapelle-sur-Erdre Centre,-1.5480056,47.2975918,None,0.0
258,Nantes,-1.5413106,47.2166953,None,0.0
259,Nantes,-1.5413549,47.2168113,None,0.0
260,,-1.5262444,47.2103792,None,0.0
261,,-1.526034,47.2102825,None,0.0
262,Beaulieu,-1.5370826,47.2039552,None,0.0
