nodeID,nodeLabel,latitude,longitude,mode,year
0,Beaverton Transit Center,-122.80120317499552,45.491076581251036,commuter_rail,1998.0
1,Wilsonville,-122.77520805242723,45.311379297735556,commuter_rail,2009.0
2,Tualatin,-122.76445111821477,45.38349799172312,commuter_rail,2009.0
3,Tigard Transit Center,-122.76967574833276,45.43012534567015,commuter_rail,2009.0
4,Hall/Nimbus,-122.7870760032628,45.45758913010317,commuter_rail,2009.0
5,South Waterfront,-122.67101193727541,45.499279960330256,people_mover,2007.0
6,Marquam Hill,-122.68412137389035,45.49952590722799,people_mover,2007.0
7,SW Lowell & Bond,-122.6714916051018,45.49392830935122,tram,2007.0
8,SW Bond & Lane,-122.67092686280489,45.49549719714173,tram,2007.0
9,SW Moody & Gaines,-122.6719155107541,45.49627467037092,tram,2007.0
10,SW Moody & Gibbs,-122.67177259392592,45.499406234907525,tram,2006.0
11,OHSU Commons,-122.67076560504157,45.49884067500858,tram,2007.0
12,SW Moody & Meade,-122.67284856049451,45.50331236623097,tram,2006.0
13,SW River Parkway & Moody,-122.67398536447013,45.50709544966932,tram,2005.0
14,SW Harrison St,-122.67657636654178,45.508884321295966,tram,2005.0
15,SW 3rd & Harrison,-122.67978943266309,45.510271110420774,tram,2005.0
16,SW 5th & Montgomery,-122.6813307942568,45.51182288702091,tram,2001.0
17,PSU Urban Center,-122.68215108895664,45.51226349732298,tram,2001.0
18,SW 5th & Market,-122.68146695282876,45.51301167320497,tram,2001.0
19,SW Park & Market,-122.68410900987512,45.51371313095916,tram,2001.0
20,SW Park & Mill,-122.68455558837637,45.513020199712,tram,2001.0
21,SW 11th & Clay,-122.68599751415664,45.51510840910757,tram,2001.0
22,SW 10th & Clay,-122.68503696515322,45.514524026201855,tram,2001.0
23,SW 11th & Jefferson,-122.68527429380293,45.51646341672222,tram,2001.0
24,Art Museum,-122.68394982488175,45.516548093761486,tram,2001.0
25,SW 11th & Taylor,-122.68384287202258,45.51910327594845,tram,2001.0
26,Central Library,-122.68251727019315,45.51920827047712,tram,2001.0
27,SW 10th & Alder,-122.68179623644522,45.520513886710376,tram,2001.0
28,SW 11th & Alder,-122.6827684315167,45.52109048114576,tram,2001.0
29,NW 10th & Couch,-122.68112859330412,45.523537442363335,tram,2001.0
30,NW 11th & Couch,-122.6821985943489,45.52393604752632,tram,2001.0
31,NW 10th & Glisan,-122.68122210255561,45.52636295075337,tram,2001.0
32,NW 11th & Glisan,-122.68230390603793,45.52668620797945,tram,2001.0
33,NW 10th & Johnson,-122.68130352862082,45.52851162560418,tram,2001.0
34,NW 11th & Johnson,-122.68236982237748,45.528821288802305,tram,2001.0
35,NW 10th & Northrup,-122.6814043419069,45.53118389314983,tram,2001.0
36,NW 12th & Northrup,-122.68324627303221,45.53151787625032,tram,2001.0
37,NW 14th & Northrup,-122.68528911912529,45.53148282728543,tram,2001.0
38,NW 13th & Lovejoy,-122.68471576479878,45.53002709595336,tram,2001.0
39,NW 18th & Northrup,-122.6893702348535,45.53140404059454,tram,2001.0
40,NW 18th & Lovejoy,-122.68969422677137,45.52995144510993,tram,2001.0
41,NW 21st & Lovejoy,-122.69475235775671,45.52985701957488,tram,2001.0
42,NW 21st & Northrup,-122.69440049561811,45.53132001286863,tram,2001.0
43,NW 22nd & Northrup,-122.69640666484625,45.531281235709315,tram,2001.0
44,NW 22nd & Lovejoy,-122.69694105454978,45.5298185082203,tram,2001.0
45,NW 23rd & Marshall,-122.69867642653347,45.53061113559329,tram,2001.0
46,SW Moody & Meade,-122.67284856049451,45.50331236623097,tram,2006.0
47,SW River Parkway & Moody,-122.67398536447013,45.50709544966932,tram,2005.0
48,SW Harrison St,-122.67657636654178,45.508884321295966,tram,2005.0
49,SW 3rd & Harrison,-122.67978943266309,45.510271110420774,tram,2005.0
50,PSU Urban Center,-122.68215108895664,45.51226349732298,tram,2001.0
51,SW Park & Mill,-122.68455558837637,45.513020199712,tram,2001.0
52,SW 10th & Clay,-122.68503696515322,45.514524026201855,tram,2001.0
53,Art Museum,-122.68394982488175,45.516548093761486,tram,2001.0
54,Central Library,-122.68251727019315,45.51920827047712,tram,2001.0
55,SW 10th & Alder,-122.68179623644522,45.520513886710376,tram,2001.0
56,NW 10th & Couch,-122.68112859330412,45.523537442363335,tram,2001.0
57,NW 10th & Glisan,-122.68122210255561,45.52636295075337,tram,2001.0
58,NW 10th & Johnson,-122.68130352862082,45.52851162560418,tram,2001.0
59,NW 9th & Lovejoy,-122.68082181838419,45.53010842855667,tram,2012.0
60,N Weidler & Ross,-122.66939052905082,45.53439870466343,tram,2012.0
61,NE Weidler & 2nd,-122.66389403303333,45.53441306468747,tram,2012.0
62,NE Weidler & Grand,-122.66037709922736,45.53439165813438,tram,2012.0
63,NE 7th & Halsey,-122.65865856434515,45.53345626642698,tram,2012.0
64,NE 7th & Holladay,-122.65866620442551,45.53077999911912,tram,2012.0
65,NE Oregon & Grand,-122.66046159790645,45.52864718717083,tram,2012.0
66,NE MLK & Burnside,-122.66183313569476,45.523485933198174,tram,2012.0
67,NE MLK & Hoyt,-122.6617948007488,45.52739739537881,tram,2012.0
68,SE MLK & Stark,-122.66186593052632,45.519252040313006,tram,2012.0
69,SE MLK & Morrison,-122.66191257577646,45.51706735982779,tram,2012.0
70,SE MLK & Taylor,-122.66189934199662,45.51472760941701,tram,2012.0
71,SE MLK & Hawthorne,-122.66194973334368,45.51263491287344,tram,2012.0
72,SE MLK & Mill,-122.66196825964292,45.50973299800444,tram,2012.0
73,OMSI/SE Water,-122.6633875385177,45.507043568308745,tram,2015.0
74,SW Moody & Meade,-122.67284856049451,45.50331236623097,tram,2006.0
75,SW River Parkway & Moody,-122.67398536447013,45.50709544966932,tram,2005.0
76,SW Harrison St,-122.67657636654178,45.508884321295966,tram,2005.0
77,SW 3rd & Harrison,-122.67978943266309,45.510271110420774,tram,2005.0
78,SW 5th & Montgomery,-122.6813307942568,45.51182288702091,tram,2001.0
79,SW 5th & Market,-122.68146695282876,45.51301167320497,tram,2001.0
80,SW Park & Market,-122.68410900987512,45.51371313095916,tram,2001.0
81,SW 11th & Clay,-122.68599751415664,45.51510840910757,tram,2001.0
82,SW 11th & Jefferson,-122.68527429380293,45.51646341672222,tram,2001.0
83,SW 11th & Taylor,-122.68384287202258,45.51910327594845,tram,2001.0
84,SW 11th & Alder,-122.6827684315167,45.52109048114576,tram,2001.0
85,NW 11th & Couch,-122.6821985943489,45.52393604752632,tram,2001.0
86,NW 11th & Glisan,-122.68230390603793,45.52668620797945,tram,2001.0
87,NW 11th & Johnson,-122.68236982237748,45.528821288802305,tram,2001.0
88,NW 10th & Northrup,-122.6814043419069,45.53118389314983,tram,2001.0
89,NW 11th & Marshall,-122.6824473710811,45.53099375725881,tram,2012.0
90,N Broadway & Ross,-122.66944225129302,45.534528098951654,tram,2012.0
91,NE Broadway & 2nd,-122.6634810155723,45.53506378723216,tram,2012.0
92,NE Grand & Broadway,-122.66058337847343,45.5347823276212,tram,2012.0
93,NE Grand & Multnomah,-122.66059911731028,45.5316205883133,tram,2012.0
94,NE Grand & Holladay,-122.66062203730425,45.52969353287742,tram,2012.0
95,NE Grand & Hoyt,-122.6606411649714,45.52747232782977,tram,2012.0
96,SE Grand & Burnside,-122.66067881094096,45.52278323710789,tram,2012.0
97,SE Grand & Stark,-122.66068813921518,45.51946447858427,tram,2012.0
98,SE Grand & Belmont,-122.6606842521642,45.51666153028012,tram,2012.0
99,SE Grand & Taylor,-122.66071766358382,45.51493734098733,tram,2012.0
100,SE Grand & Hawthorne,-122.66074084523156,45.51273569682502,tram,2012.0
101,SE Grand & Mill,-122.66075548442916,45.50997816047723,tram,2012.0
102,OMSI/SE Water,-122.6633875385177,45.507043568308745,tram,2015.0
103,Library/SW 9th Ave,-122.68208683856633,45.51926354304496,light_rail,1986.0
104,Galleria/SW 10th Ave,-122.68168674800954,45.51988220164074,light_rail,1986.0
105,Pioneer Square North,-122.67939197576544,45.51926354305135,light_rail,1986.0
106,Pioneer Square South,-122.6792954021818,45.51851598817299,light_rail,1986.0
107,Morrison/SW 3rd Ave,-122.67540240838744,45.51819443095383,light_rail,1986.0
108,Yamhill District,-122.67457463482478,45.51719229944533,light_rail,1986.0
109,Oak St/SW 1st Ave,-122.67245787682225,45.519943498056676,light_rail,1986.0
110,Skidmore Fountain,-122.67140352160968,45.523233886877534,light_rail,1986.0
111,Old Town/Chinatown,-122.67145627227865,45.52479805084175,light_rail,1986.0
112,Rose Quarter Transit Center,-122.66632797602907,45.5299652227701,light_rail,1986.0
113,Convention Center,-122.66223913924082,45.53010693440655,light_rail,1990.0
114,NE 7th Ave,-122.65808972766504,45.53012203698526,light_rail,1986.0
115,Lloyd Center/NE 11th Ave,-122.65419106036244,45.53010318699657,light_rail,1986.0
116,Hollywood/NE 42nd Ave Transit Center,-122.621025724845,45.532906173885095,light_rail,1986.0
117,NE 60th Ave,-122.6028530100876,45.52879461281313,light_rail,1986.0
118,NE 8nd Ave,-122.57837844225065,45.53349631470002,light_rail,1986.0
119,Gateway/NE 99th Ave Transit Center,-122.56359780560787,45.53064664417931,light_rail,1986.0
120,Sunset Transit Center,-122.7813036684508,45.510389108061105,light_rail,1998.0
121,Washington Park,-122.71694448879518,45.51071788855714,light_rail,1998.0
122,Goose Hollow/SW Jefferson St,-122.693886334574,45.51813911671783,light_rail,1998.0
123,Kings Hill/SW Salmon St,-122.69121058619356,45.52036825972968,light_rail,1997.0
124,Providence Park,-122.68999483027372,45.52133807952529,light_rail,1997.0
125,Beaverton Transit Center,-122.80120317499552,45.491076581251036,light_rail,1998.0
126,Parkrose/Sumner Transit Center,-122.56552915068569,45.55909886939065,light_rail,2001.0
127,Cascades,-122.55802560340291,45.57225087684313,light_rail,2007.0
128,Mount Hood Ave,-122.56715463990375,45.57708942747914,light_rail,2001.0
129,Portland International Airport,-122.59304888478609,45.587518844452035,light_rail,2001.0
130,Expo Center,-122.68560495029243,45.60542879387748,light_rail,2004.0
131,Delta Park/Vanport,-122.68562822890101,45.59610687126337,light_rail,2004.0
132,Kenton/North Denver Ave,-122.68604148534945,45.5839117683567,light_rail,2004.0
133,N Lombard Transit Center,-122.68211383191736,45.57717735688763,light_rail,2004.0
134,Rosa Parks,-122.68217479892905,45.56989566161562,light_rail,2004.0
135,N Killingsworth St,-122.68226302269093,45.56265975692281,light_rail,2004.0
136,N Prescott St,-122.6823100754346,45.55516407136972,light_rail,2004.0
137,Overlook Park,-122.6810105028912,45.54919759093801,light_rail,2004.0
138,Albina/Mississippi,-122.67549691907394,45.53954342894056,light_rail,2004.0
139,Interstate/Rose Quarter,-122.66784468948455,45.53017460702861,light_rail,2004.0
140,PSU South/SW 6th & College,-122.68365727228982,45.50962711899027,light_rail,2009.0
141,PSU Urban Center/SW 6th & Montgomery,-122.68261238887759,45.51161099261114,light_rail,2009.0
142,SW 6th & Madison,-122.68047409222774,45.51553720442499,light_rail,2009.0
143,Pioneer Courthouse/SW 6th,-122.67866676817084,45.518938693742314,light_rail,2009.0
144,SW 6th & Pine,-122.67690112533704,45.522211623781345,light_rail,2009.0
145,NW 6th & Davis,-122.67648289638069,45.524408436345624,light_rail,2009.0
146,Union Station/NW 6th & Hoyt,-122.67658413882151,45.52722370806728,light_rail,2009.0
147,Clackamas Town Center Transit Center,-122.56780397665752,45.435719803082236,light_rail,2009.0
148,SE Fuller Road,-122.57363896574716,45.45340504824841,light_rail,2009.0
149,SE Flavel Street,-122.56668201554001,45.467872292552386,light_rail,2009.0
150,Lents Town Center/SE Foster Road,-122.56686478262371,45.48045680177543,light_rail,2009.0
151,SE Holgate Blvd,-122.56630333625759,45.49114024347588,light_rail,2009.0
152,SE Powell Blvd,-122.56623079844593,45.4957848280456,light_rail,2009.0
153,SE Division St,-122.56664231363757,45.503428934514176,light_rail,2009.0
154,SE Main St,-122.56444704026936,45.51428112623523,light_rail,2009.0
155,PSU South/SW 5th & Jackson,-122.68303025238818,45.508942650952065,light_rail,2009.0
156,PSU South/SW 6th & College,-122.68365727228982,45.50962711899027,light_rail,2009.0
157,PSU Urban Center/SW 6th & Montgomery,-122.68261238887759,45.51161099261114,light_rail,2009.0
158,PSU Urban Center/SW 5th & Mill,-122.68154323954987,45.511653241931725,light_rail,2009.0
159,SW 6th & Madison,-122.68047409222774,45.51553720442499,light_rail,2009.0
160,City Hall/SW 5th & Jefferson,-122.67970023192325,45.515010894517815,light_rail,2009.0
161,Pioneer Courthouse/SW 6th,-122.67866676817084,45.518938693742314,light_rail,2009.0
162,Pioneer Place/SW 5th,-122.67792318687503,45.51830784847431,light_rail,2009.0
163,SW 5th & Oak,-122.6761213698179,45.52161460870116,light_rail,2009.0
164,SW 6th & Pine,-122.67690112533704,45.522211623781345,light_rail,2009.0
165,NW 5th & Couch,-122.67548609550906,45.52392690102741,light_rail,2009.0
166,NW 6th & Davis,-122.67648289638069,45.524408436345624,light_rail,2009.0
167,Union Station/NW 5th & Glisan,-122.67558331859405,45.52676472377749,light_rail,2009.0
168,Union Station/NW 6th & Hoyt,-122.67658413882151,45.52722370806728,light_rail,2009.0
169,Library/SW 9th Ave,-122.68208683856633,45.51926354304496,light_rail,1986.0
170,Galleria/SW 10th Ave,-122.68168674800954,45.51988220164074,light_rail,1986.0
171,Pioneer Square North,-122.67939197576544,45.51926354305135,light_rail,1986.0
172,Pioneer Square South,-122.6792954021818,45.51851598817299,light_rail,1986.0
173,Morrison/SW 3rd Ave,-122.67540240838744,45.51819443095383,light_rail,1986.0
174,Yamhill District,-122.67457463482478,45.51719229944533,light_rail,1986.0
175,Oak St/SW 1st Ave,-122.67245787682225,45.519943498056676,light_rail,1986.0
176,Skidmore Fountain,-122.67140352160968,45.523233886877534,light_rail,1986.0
177,Old Town/Chinatown,-122.67145627227865,45.52479805084175,light_rail,1986.0
178,Rose Quarter Transit Center,-122.66632797602907,45.5299652227701,light_rail,1986.0
179,Convention Center,-122.66223913924082,45.53010693440655,light_rail,1990.0
180,NE 7th Ave,-122.65808972766504,45.53012203698526,light_rail,1986.0
181,Lloyd Center/NE 11th Ave,-122.65419106036244,45.53010318699657,light_rail,1986.0
182,Hollywood/NE 42nd Ave Transit Center,-122.621025724845,45.532906173885095,light_rail,1986.0
183,NE 60th Ave,-122.6028530100876,45.52879461281313,light_rail,1986.0
184,NE 8nd Ave,-122.57837844225065,45.53349631470002,light_rail,1986.0
185,Gateway/NE 99th Ave Transit Center,-122.56359780560787,45.53064664417931,light_rail,1986.0
186,E 122nd Ave,-122.53780496720248,45.52248677299659,light_rail,1986.0
187,E 102nd Ave,-122.55831875452728,45.522648151558315,light_rail,1986.0
188,E 148th Ave,-122.51067840131307,45.52228205529755,light_rail,1986.0
189,E 162nd Ave,-122.4965013148906,45.52217552447132,light_rail,1986.0
190,E 172nd Ave,-122.48617467358639,45.52209767487196,light_rail,1986.0
191,E 181st Ave,-122.47712529672911,45.52200343557374,light_rail,1986.0
192,Rockwood/E 188th Ave,-122.47072167719898,45.520524271335375,light_rail,1986.0
193,Ruby Junction/E 197th Ave,-122.46031093541033,45.51610915200027,light_rail,1986.0
194,Civic Drive,-122.44148166408576,45.50808409189642,light_rail,2010.0
195,Gresham City Hall,-122.43602030938526,45.50579977843748,light_rail,1986.0
196,Gresham Central Transit Center,-122.42710277781863,45.502616268794554,light_rail,1986.0
197,Cleveland Ave,-122.41853127970128,45.50177856747305,light_rail,1986.0
198,Beaverton Central,-122.80711118695592,45.49048384555431,light_rail,1998.0
199,Millikan Way,-122.82154595713166,45.49524990671452,light_rail,1998.0
200,Beaverton Creek,-122.83322454972169,45.50045434241454,light_rail,1998.0
201,Merlo Rd/SW 158th Ave,-122.84228671183621,45.505181598715836,light_rail,1998.0
202,Elmonica/SW 170th Ave,-122.85152292108324,45.51000569098218,light_rail,1998.0
203,Willow Creek/SW 185th Ave Transit Center,-122.87028210657863,45.517240711243176,light_rail,1998.0
204,Quatama,-122.88889068289713,45.52322878740068,light_rail,1998.0
205,Orenco,-122.91585229237124,45.53026616960358,light_rail,1998.0
206,Hawthorn Farm,-122.93075875139675,45.529956129192186,light_rail,1998.0
207,Fair Complex/Hillsboro Airport,-122.94616359225336,45.52699191252151,light_rail,1998.0
208,Washington/SE 12th Ave,-122.9695558725058,45.52116371066299,light_rail,1998.0
209,Tuality Hospital/SE 8th Ave,-122.9783886918628,45.52130391424063,light_rail,1998.0
210,Hillsboro Central/SE 3rd Ave Transit Center,-122.98528762433621,45.521366293324206,light_rail,1998.0
211,Mark O. Hatfield Government Center,-122.99102408400546,45.52220216433216,light_rail,1998.0
212,Sunset Transit Center,-122.7813036684508,45.510389108061105,light_rail,1998.0
213,Washington Park,-122.71694448879518,45.51071788855714,light_rail,1998.0
214,Goose Hollow/SW Jefferson St,-122.693886334574,45.51813911671783,light_rail,1998.0
215,Kings Hill/SW Salmon St,-122.69121058619356,45.52036825972968,light_rail,1997.0
216,Providence Park,-122.68999483027372,45.52133807952529,light_rail,1997.0
217,Beaverton Transit Center,-122.80120317499552,45.491076581251036,light_rail,1998.0
218,Lincoln St/SW 3rd Ave,-122.68055412191167,45.50793944519674,light_rail,2015.0
219,South Waterfront/SW Moody,-122.67142625307207,45.502712147418606,light_rail,2015.0
220,OMSI/SE Water,-122.66280390901436,45.50656623911834,light_rail,2015.0
221,Clinton St/SE 12th Ave,-122.65328938806837,45.50280975004634,light_rail,2015.0
222,SE 17th Ave & Rhine St,-122.64816001751814,45.497884288894625,light_rail,2015.0
223,SE 17th Ave & Holgate Blvd,-122.6485267697793,45.49088503803222,light_rail,2015.0
224,SE Bybee Blvd,-122.64001102904015,45.474757900824045,light_rail,2015.0
225,SE Tacoma/Johnson Creek,-122.63759112944922,45.46277538123124,light_rail,2015.0
226,Milwaukie/Main St,-122.63999582110273,45.44119545806092,light_rail,2015.0
227,SE Park Ave,-122.63512591043329,45.430663602894015,light_rail,2015.0
228,PSU South/SW 5th & Jackson,-122.68303025238818,45.508942650952065,light_rail,2009.0
229,PSU Urban Center/SW 5th & Mill,-122.68154323954987,45.511653241931725,light_rail,2009.0
230,City Hall/SW 5th & Jefferson,-122.67970023192325,45.515010894517815,light_rail,2009.0
231,Pioneer Place/SW 5th,-122.67792318687503,45.51830784847431,light_rail,2009.0
232,SW 5th & Oak,-122.6761213698179,45.52161460870116,light_rail,2009.0
233,NW 5th & Couch,-122.67548609550906,45.52392690102741,light_rail,2009.0
234,Union Station/NW 5th & Glisan,-122.67558331859405,45.52676472377749,light_rail,2009.0
