nodeID,nodeLabel,latitude,longitude,mode,year
0,Longyang Lu (Longyang Road),121.55266371908255,31.204679759945904,heavy_rail,2014.0
1,Huaxia Zhong Lu (Middle Huaxia Road),121.57949460010394,31.1782130517921,heavy_rail,2014.0
2,Luoshan Lu (Luoshan Road),121.58953931520134,31.15380122175893,heavy_rail,2013.0
3,Zhoupu Dong (East Zhoupu),121.60272723004931,31.11237240001654,heavy_rail,2013.0
4,Heshahangcheng,121.60718199552048,31.07998791927473,heavy_rail,2013.0
5,Hangtou Dong (East Hangtou),121.61288918985895,31.058530288929518,heavy_rail,2013.0
6,Xinchang,121.64429432665924,31.047814626901513,heavy_rail,2013.0
7,Yesheng Dongwuyuan (Wild Animal Park),121.69550810659007,31.052372675455644,heavy_rail,2013.0
8,Huinan,121.75623592967287,31.05596210444928,heavy_rail,2013.0
9,Huinan Dong (East Huinan),121.78947224168479,31.029151114599387,heavy_rail,2013.0
10,Shuyuan,121.84540491392244,30.96219981475626,heavy_rail,2013.0
11,Lingang Dadao (Lingang Avenue),121.90696774819003,30.925463925647293,heavy_rail,2013.0
12,Dishui Hu (Dishui Lake),121.92576553283294,30.909288214869363,heavy_rail,2013.0
13,Yuyuan (Yuyuan Garden),121.48383280603701,31.231020087381467,heavy_rail,2021.0
14,,121.50644185407913,31.23998404499946,heavy_rail,2021.0
15,Pudong Dadong (Pudong Avenue),121.51647967101701,31.24253948274648,heavy_rail,2021.0
16,,121.52554974498725,31.243713824603674,heavy_rail,2021.0
17,,121.53585598749214,31.246511881832006,heavy_rail,2021.0
18,,121.54743449105291,31.253172538096564,heavy_rail,2021.0
19,,121.59605063013112,31.23912869359654,heavy_rail,2021.0
20,,121.6103982737281,31.243636679930646,heavy_rail,2021.0
21,,121.62460638172797,31.244402937251266,heavy_rail,2021.0
22,,121.63247559228262,31.25327966299217,heavy_rail,2021.0
23,,121.2912626768179,31.269692699258783,heavy_rail,2021.0
24,,121.30972844426094,31.26715033535585,heavy_rail,2021.0
25,,121.32636172525747,31.265025327904993,heavy_rail,2021.0
26,,121.34233334698757,31.260713943805314,heavy_rail,2021.0
27,,121.3689816050059,31.25681021962849,heavy_rail,2021.0
28,,121.38032500394388,31.25509853622478,heavy_rail,2021.0
29,,121.39304182091274,31.25266916807037,heavy_rail,2021.0
30,Zhenru,121.40210480684095,31.252693635823846,heavy_rail,2021.0
31,,121.41058036454456,31.24651342964242,heavy_rail,2021.0
32,,121.41675076863777,31.241849143370885,heavy_rail,2021.0
33,Wuning Lu (Wuning Road),121.42592378701602,31.235303904068772,heavy_rail,2021.0
34,,121.43215222874977,31.22904800490899,heavy_rail,2021.0
35,,121.44080744377777,31.223553942921683,heavy_rail,2021.0
36,,121.45388365691991,31.222330855470915,heavy_rail,2021.0
37,,121.46840440657712,31.225616530473374,heavy_rail,2021.0
38,,121.47466446995912,31.228269346529743,heavy_rail,2021.0
39,Yunshan Lu (Yunshan Road),121.5671804055587,31.252702818408054,heavy_rail,2021.0
40,Lantian Lu (Lantian Road),121.57392790633077,31.242715545076763,heavy_rail,2021.0
41,,121.58693673304577,31.236238512004746,heavy_rail,2021.0
42,Hailun Lu (Hailun Road),121.48419117042175,31.261084748378465,heavy_rail,2010.0
43,Shaanxi Nan Lu (South Shaanxi Road),121.45397444977021,31.21660068151712,heavy_rail,2010.0
44,Xintiandi,121.47054999906663,31.218272642193867,heavy_rail,2010.0
45,Nanjing Dong Lu (East Nanjing Road),121.48018358279853,31.240326235229944,heavy_rail,2010.0
46,Siping Lu (Siping Road),121.49653744767875,31.27641940061942,heavy_rail,2010.0
47,Hangzhong Lu (Hangzhong Road),121.35052653746317,31.168049117684973,heavy_rail,2010.0
48,Ziteng Lu (Ziteng Road),121.3600061101265,31.171750513268293,heavy_rail,2010.0
49,Longbai Xincun,121.36553836962821,31.180863395168856,heavy_rail,2010.0
50,Jiaotong Daxue (Jiaotong University),121.4292844986735,31.203777441010004,heavy_rail,2010.0
51,Shanghai Tushuguan (Shanghai Library),121.43965713374172,31.210007203019074,heavy_rail,2010.0
52,Yuyuan (Yuyuan Garden),121.4826235121136,31.23017541978777,heavy_rail,2010.0
53,Tiantong Lu (Tiantong Road),121.47786130471616,31.24631877530321,heavy_rail,2010.0
54,Sichuan Bei Lu (North Sichuan Road),121.4796486614959,31.253630171908483,heavy_rail,2010.0
55,Laoximen,121.47939869738173,31.220977211668878,heavy_rail,2010.0
56,Hongqiao Huochezhan (Hongqiao Railway),121.31333924851154,31.195507256539617,heavy_rail,2010.0
57,Hongqiao Erhao Hangzhanlou (Hongqiao Airport Terminal 2),121.32200903942993,31.196084503298735,heavy_rail,2010.0
58,Hongqiao Lu (Hongqiao Road),121.4179322341883,31.19874811814273,heavy_rail,2010.0
59,Hongqiao Yihao Hangzhanlou (Hongqiao Airport Terminal 1),121.34320783502932,31.192950452320176,heavy_rail,2010.0
60,Shanghai Dongwuyuan (Shanghai Zoo),121.363044594097,31.192174196044704,heavy_rail,2010.0
61,Longxi Lu (Longxi Road),121.37577977834076,31.196480999027358,heavy_rail,2010.0
62,Shuicheng Lu (Shuicheng Road),121.38717658327295,31.201066235197857,heavy_rail,2010.0
63,Yili Lu (Yili Road),121.39986779997014,31.200609698960506,heavy_rail,2010.0
64,Songyuan Lu (Songyuan Road),121.40775793018082,31.198462044194926,heavy_rail,2010.0
65,Youdian Xincun,121.49043747986678,31.271051785629822,heavy_rail,2010.0
66,Tongji Daxue (Tongji University),121.50168048806802,31.28364639883884,heavy_rail,2010.0
67,Wujiaochang,121.50908800359986,31.298321979942727,heavy_rail,2010.0
68,Jiangwan Tiyuchang (Jiangwan Stadium),121.50772747779035,31.308145565064734,heavy_rail,2010.0
69,Sanmen Lu (Sanmen Road),121.50325169423974,31.315558515119605,heavy_rail,2010.0
70,Yingao Dong Lu (East Yingao Road),121.50183124130086,31.32279578336815,heavy_rail,2010.0
71,	Xinjiangwancheng,121.50215609897856,31.33082358852269,heavy_rail,2010.0
72,Guoquan Lu (Guoquan Road),121.50548443612564,31.290745636806644,heavy_rail,2010.0
73,Hongqiao Huochezhan (Hongqiao Railway),121.3133333475775,31.195986740133193,heavy_rail,2017.0
74,Zhuguang Lu (Zhuguang Road),121.28720686611632,31.19355729623257,heavy_rail,2017.0
75,Panlong Lu (Panlong Road),121.27228658223152,31.18851437667415,heavy_rail,2017.0
76,Xuying Lu (Xuying Road),121.24819415239472,31.180230850673325,heavy_rail,2017.0
77,Xuying Road,121.2342674748594,31.177299127893747,heavy_rail,2017.0
78,Jiasong Zhong Lu (Middle Jiasong Road),121.22003274209135,31.166174638312796,heavy_rail,2017.0
79,Zhaoxiang,121.18896420235899,31.163558721791176,heavy_rail,2017.0
80,Huijin Lu (Huijin Road),121.14710635969055,31.16304640053133,heavy_rail,2017.0
81,Qingpu Xincheng,121.12080877056985,31.160800034993358,heavy_rail,2017.0
82,Dianshanhu Dadao (Dianshanhu Avenue),121.07477094749908,31.135006166886114,heavy_rail,2017.0
83,Zhujiajiao,121.04313340617091,31.102805884161228,heavy_rail,2017.0
84,Dongfang Luzhao (Oriental Land),121.01524767138045,31.100952101675944,heavy_rail,2017.0
85,Caoying Lu (Caoying Road),121.0921623598311,31.162337027821195,heavy_rail,2017.0
86,Nanjing Xi Lu (West Nanjing Road),121.45754845357504,31.23159499182212,heavy_rail,2015.0
87,Changshou Lu (Changshou Road),121.43337661901082,31.242397129020794,heavy_rail,2013.0
88,Changqing Lu (Changqing Road),121.48250349757609,31.177998438045122,heavy_rail,2015.0
89,Chengshan Lu (Chengshan Road),121.493033285124,31.17362342551435,heavy_rail,2018.0
90,Xintiandi,121.47052686936962,31.217911827513305,heavy_rail,2015.0
91,Longde Lu (Longde Road),121.41832509252288,31.230747714938687,heavy_rail,2014.0
92,Jinyun Lu (Jinyun Road),121.31575285551071,31.243028554696266,heavy_rail,2013.0
93,Jinshajiang Xi Lu (West Jinshajiang Road),121.33080868912452,31.243214035215885,heavy_rail,2013.0
94,Fengzhuang,121.35068065392136,31.244289815249445,heavy_rail,2017.0
95,Qilianshan Nan Lu (South Qilianshan Road),121.36280645907271,31.239703457223342,heavy_rail,2017.0
96,Zhenbei Lu (Zhenbei Road),121.37673418955484,31.234287075162868,heavy_rail,2017.0
97,Wuning Lu (Wuning Road),121.42444876945835,31.234518333216496,heavy_rail,2014.0
98,Jiangning Lu (Jiangning Road),121.43960183193883,31.245992421161688,heavy_rail,2015.0
99,Ziran Bowuguan (Shanghai Natural History Museum),121.45766072730606,31.23899338794409,heavy_rail,2015.0
100,Huaihai Zhong Lu (Middle Huaihai Road),121.46006311353398,31.22230626441109,heavy_rail,2015.0
101,Shibo Dadao (Shibo Avenue),121.47978276770249,31.18623113818053,heavy_rail,2015.0
102,Zhangjiang Lu (Zhangjiang Road),121.62401848744855,31.19104159271997,heavy_rail,2018.0
103,Huapeng Lu (Huapeng Road),121.52293405331392,31.17857132013249,heavy_rail,2018.0
104,Xianan Lu (Xianan Road),121.53695741876652,31.181551562644614,heavy_rail,2018.0
105,Beicai,121.54507837058969,31.18224993770791,heavy_rail,2018.0
106,Chenchun Lu (Chenchun Road),121.55348965087512,31.176796678174483,heavy_rail,2018.0
107,Lianxi Lu (Lianxi Road),121.56240297359517,31.17147597145147,heavy_rail,2018.0
108,Huaxia Zhong Lu (Middle Huaxia Road),121.57891834563515,31.177632232939217,heavy_rail,2018.0
109,Dongming Lu (Dongming Road),121.5076010455852,31.174893115429583,heavy_rail,2018.0
110,Hanzhong Lu (Hanzhong Road),121.45395196378888,31.24274807990112,heavy_rail,2015.0
111,Jinshajiang Lu (Jinshajiang Road),121.40699641547042,31.232943015191168,heavy_rail,2017.0
112,Daduhe Lu (Daduhe Road),121.39071598503699,31.23372854574893,heavy_rail,2017.0
113,Madang Lu (Madang Road),121.47216150258089,31.211322229979984,heavy_rail,2015.0
114,Shibohui Bowuguan (World Expo Museum),121.47742044059179,31.198734274217234,heavy_rail,2015.0
115,Zhongke Lu (Zhongke Road),121.60141125701205,31.181490456344008,heavy_rail,2018.0
116,Xuelin Lu (Xuelin Road),121.60675954266799,31.183556186125912,heavy_rail,2018.0
117,Jinhai Lu (Jinhai Road),121.63637127902086,31.265510376126002,heavy_rail,2013.0
118,Longcao Lu (Longcao Road),121.43822773624301,31.172009908797015,heavy_rail,2013.0
119,Hanzhong Lu (Hanzhong Road),121.45318994943034,31.24303407539989,heavy_rail,2015.0
120,Nanjing Xi Lu (West Nanjing Road),121.45466182399224,31.230056990467205,heavy_rail,2015.0
121,Dalian Lu (Dalian Road),121.50875304491313,31.260043129858744,heavy_rail,2013.0
122,Qufu Lu (Qufu Road),121.46689470247748,31.24421041777262,heavy_rail,2014.0
123,Tiantong Lu (Tiantong Road),121.4778139353536,31.245837364016538,heavy_rail,2013.0
124,Shenjiang Lu (Shenjiang Road),121.62241155368804,31.281945652953567,heavy_rail,2013.0
125,Jinjing Lu (Jinjing Road),121.61128967020994,31.28200608523383,heavy_rail,2013.0
126,Yanggao Bei Lu (North Yanggao Road),121.59912077854767,31.282349244940207,heavy_rail,2013.0
127,Donglu Lu (Donglu Road),121.5750510746231,31.28448175074402,heavy_rail,2013.0
128,Fuxing Dao (Fuxing Island),121.55783803827569,31.283497404658362,heavy_rail,2013.0
129,Aiguo Lu (Aiguo Road),121.54817194261318,31.282023418554857,heavy_rail,2013.0
130,Longchang Lu (Longchang Road),121.53920189701472,31.27653380981606,heavy_rail,2013.0
131,Ningguo Lu (Ningguo Road),121.5278818374054,31.270572229618253,heavy_rail,2013.0
132,Jiangpu Gongyuan (Jiangpu Park),121.51897990839484,31.26660074360069,heavy_rail,2013.0
133,Caobao Lu (Caobao Road),121.42882856128045,31.170347164862903,heavy_rail,2015.0
134,Longhua,121.4476850883886,31.175971442861297,heavy_rail,2015.0
135,Hongcao Lu (Hongcao Road),121.40508113420975,31.16581260719005,heavy_rail,2015.0
136,Hongxin Lu (Hongxin Road),121.37521840316401,31.139256357494205,heavy_rail,2015.0
137,Qixin Lu (Qixin Road),121.35650655086567,31.132961413089504,heavy_rail,2015.0
138,Longhua Zhong Lu (Middle Longhua Road),121.45339025499749,31.187110639126217,heavy_rail,2015.0
139,Jiashan Lu (Jiashan Road),121.45631884050613,31.205363125126766,heavy_rail,2015.0
140,Shaanxi Nan Lu (South Shaanxi Road),121.45487918178065,31.217899764682983,heavy_rail,2015.0
141,Damuqiao Lu (Damuqiao Road),121.4596521618999,31.19550253976827,heavy_rail,2015.0
142,Tilanqiao,121.50117348519689,31.25511821038222,heavy_rail,2013.0
143,Guoji Keyun Zhongxin (International Cruise Terminal),121.49189482382627,31.251381724247935,heavy_rail,2013.0
144,Guilin Gongyuan (Guilin Park),121.41776643907957,31.168931093715997,heavy_rail,2015.0
145,Hongmei Lu (Hongmei Road),121.39403075077406,31.162622222330587,heavy_rail,2015.0
146,Donglan Lu (Donglan Road),121.38731175999834,31.15572651230626,heavy_rail,2015.0
147,Gudai Lu (Gudai Road),121.38658454681399,31.142204479614094,heavy_rail,2015.0
148,Longde Lu (Longde Road),121.41856448273063,31.231942590192716,heavy_rail,2009.0
149,Jiaotong Daxue (Jiaotong University),121.42976088051898,31.20508216015888,heavy_rail,2013.0
150,Shanghai Yongyuan Guan (Shanghai Swimming Center),121.43594008542777,31.18076312847093,heavy_rail,2013.0
151,Longhua,121.44588742722988,31.17481390531043,heavy_rail,2013.0
152,Yunjin Lu (Yunjin Road),121.45401829339465,31.169264374346966,heavy_rail,2013.0
153,Longyao Yu (Longyao Road),121.45511726546954,31.161723769733555,heavy_rail,2013.0
154,Sanlin,121.50661913389774,31.144964786247883,heavy_rail,2013.0
155,Sanlin Dong (East Sanlin),121.51872286188785,31.148359723548296,heavy_rail,2013.0
156,Pusan Lu (Pusan Road),121.53423998656052,31.152936616503908,heavy_rail,2013.0
157,Baiyin Lu (Baiyin Road),121.2407739869825,31.3471933323586,heavy_rail,2009.0
158,Jiading Xincheng,121.24945630475685,31.332251651451443,heavy_rail,2009.0
159,Malu,121.27237555942133,31.321727238877713,heavy_rail,2009.0
160,Liziyuan,121.38560675792235,31.27080869152651,heavy_rail,2009.0
161,Changji Dong Lu (East Changji Road),121.19612616807109,31.295461251286113,heavy_rail,2010.0
162,Shanghai Qichecheng (Shanghai Automobile City),121.17608194400668,31.287337135734845,heavy_rail,2010.0
163,Shanghai Sachechang (Shanghai Circuit),121.22159773989932,31.333836011655222,heavy_rail,2010.0
164,Anting,121.157892257166,31.29050762091822,heavy_rail,2010.0
165,Dongfang Tiyu Zhongxin (Oriental Sports Center),121.47296594861115,31.155417423859504,heavy_rail,2013.0
166,Xujiahui,121.43131056082518,31.197222146647263,heavy_rail,2013.0
167,Caoyang Lu (Caoyang Road),121.41313919455752,31.239909024099106,heavy_rail,2009.0
168,Jiading Xi (West Jiading),121.22354510984246,31.378339294034646,heavy_rail,2009.0
169,North Bei (North Jiading),121.23322711991256,31.393695044375363,heavy_rail,2009.0
170,Zhaofeng Lu (Zhaofeng Road),121.14594278877149,31.290827002657423,heavy_rail,2013.0
171,Huaqiao,121.09933912417324,31.300697055138315,heavy_rail,2013.0
172,Nanxiang,121.31867061255298,31.298968932056567,heavy_rail,2009.0
173,Taopu Xincun,121.3460316763423,31.283475153772628,heavy_rail,2009.0
174,Wuwei Lu (Wuwei Road),121.35842430330842,31.27982990473987,heavy_rail,2009.0
175,Qilianshan Lu (Qilianshan Road),121.37196237464275,31.27343505338287,heavy_rail,2009.0
176,Shanghai Xi Zhan(West Shanghai Railway),121.39643089190321,31.264670138682845,heavy_rail,2009.0
177,Zhenru,121.40219592019349,31.253380815431086,heavy_rail,2009.0
178,Fengqiao Lu (Fengqiao Road),121.40601720139824,31.24409319376312,heavy_rail,2009.0
179,Guangming Lu (Guangming Road),121.11279151697805,31.297972313367932,heavy_rail,2013.0
180,Jiangsu Lu (Jiangsu Road),121.42628257566713,31.221599234164117,heavy_rail,2009.0
181,Luoshan Lu (Luoshan Road),121.58992936353629,31.153687845215376,heavy_rail,2013.0
182,Yuqiao,121.56632928864153,31.160351435819308,heavy_rail,2013.0
183,Kangxin Gonglu (Kangxin Highway),121.61127134084467,31.13266530459032,heavy_rail,2015.0
184,Xiuyan Lu (Xiuyan Road),121.59459238541524,31.140021397182124,heavy_rail,2015.0
185,Dishìni (Disney Resort),121.66138668982536,31.14289660710564,heavy_rail,2016.0
186,Lujiabang Lu (Lujiabang Road),121.48158958952138,31.21380170537452,heavy_rail,2009.0
187,Dapuqiao,121.46568039118898,31.20852795647093,heavy_rail,2009.0
188,Xujiahui,121.43218360832871,31.19659381698229,heavy_rail,2009.0
189,Shiji Dadao (Century Avenue),121.52309078711238,31.230523017540776,heavy_rail,2009.0
190,Yishan Lu (Yishan Road),121.4240834872861,31.188677142458868,heavy_rail,2008.0
191,Zhaojiabang Lu (Zhaojiabang Road),121.4463596848348,31.2015486275637,heavy_rail,2009.0
192,Yanggao Zhong Lu (Middle Yanggao Road),121.54529189363922,31.22992337151743,heavy_rail,2009.0
193,Shangcheng Lu (Shangcheng Road),121.51172922533061,31.23226729737347,heavy_rail,2009.0
194,Hechuan Lu (Hechuan Road),121.37677109797022,31.16744415654172,heavy_rail,2007.0
195,Xingzhong Lu (Xingzhong Road),121.36443630387504,31.16014840206404,heavy_rail,2007.0
196,Qibao,121.3446498826172,31.157078038851793,heavy_rail,2007.0
197,Zhongchun Lu (Zhongchun Road),121.33404203738957,31.151349805626396,heavy_rail,2007.0
198,Jiuting,121.31251090605383,31.138854584290172,heavy_rail,2007.0
199,Sijing,121.25503533398722,31.12037834180677,heavy_rail,2007.0
200,Sheshan,121.2250758933763,31.107161373054936,heavy_rail,2007.0
201,Dongjing,121.22597411056103,31.08531637573242,heavy_rail,2007.0
202,Songjiang Xincheng,121.22575331279978,31.03202888898842,heavy_rail,2007.0
203,Minlei Lu (Minlei Road),121.66389767817253,31.270419060662377,heavy_rail,2017.0
204,Fangdian Lu (Fangdian Road),121.55303466345447,31.233351517310737,heavy_rail,2017.0
205,Caolu,121.67785329407167,31.27314944755625,heavy_rail,2017.0
206,Gutang Lu (Gutang Road),121.65226223212778,31.268156440815545,heavy_rail,2017.0
207,Jinhai Lu (Jinhai Road),121.63579773845709,31.26640969372977,heavy_rail,2017.0
208,Jinji Lu (Jinji Road),121.62446303493823,31.266333299866687,heavy_rail,2017.0
209,Jinqiao,121.6062820277537,31.262725385894385,heavy_rail,2017.0
210,Taierzhuang Lu (Taierzhuang Road),121.59220254940222,31.254267284626238,heavy_rail,2017.0
211,Lantian Lu (Lantian Road),121.57317284481451,31.243119044665676,heavy_rail,2017.0
212,Xiaonanmen,121.49398259037173,31.21910817731775,heavy_rail,2009.0
213,Madang Lu (Madang Road),121.47269914262802,31.211427525209743,heavy_rail,2009.0
214,Jiashan Lu (Jiashan Road),121.45644268067349,31.2048430055533,heavy_rail,2009.0
215,Guilin Lu (Guilin Road),121.41112076362003,31.176198994537458,heavy_rail,2007.0
216,Caohejing Kaifaqu (Caohejing Hi-Tech Park),121.39371834735863,31.172718854497234,heavy_rail,2007.0
217,Songjiang Daxue Cheng (Songjiang University Town),121.22802357338645,31.056694081514323,heavy_rail,2007.0
218,Songjiang Tiyu Zhongxin (Songjiang Sports Center),121.22618119626475,31.018081267876468,heavy_rail,2012.0
219,Zuibaichi (Zuibaichi Park),121.22425037939576,31.00268946003594,heavy_rail,2012.0
220,Songjiang Nan Zhan (Songjiang South Railway),121.22643309935984,30.986681939722473,heavy_rail,2012.0
221,Yangsi,121.48837694248317,31.162543771165844,heavy_rail,2009.0
222,Hongkou Zuqiu (Hongkou Football Stadium),121.47450676861075,31.27178043360442,heavy_rail,2007.0
223,Xizang Nan Lu (South Xizang Road),121.48508581937404,31.204240979402982,heavy_rail,2007.0
224,Dongfang Tiyu Zhongxin (Oriental Sports Center),121.47600144446119,31.155305305948318,heavy_rail,2009.0
225,Yaohua Lu (Yaohua Road),121.48999112071476,31.180865274982466,heavy_rail,2007.0
226,Shiguang Lu (Shiguang Road),121.52764537651922,31.323635378611485,heavy_rail,2007.0
227,Nenjiang Lu (Nenjiang Road),121.52758919812533,31.316625113687934,heavy_rail,2007.0
228,Xiangyin Lu (Xiangyin Road),121.52759010086999,31.30747625222122,heavy_rail,2007.0
229,Huangxing Gongyuan (Huangxing Park),121.52873940002377,31.29804415912018,heavy_rail,2007.0
230,Yanji Zhong Lu (Middle Yanji Road),121.53062277210705,31.291111324640468,heavy_rail,2007.0
231,Huangxing Lu (Huangxing Road),121.52448306592964,31.281175933849156,heavy_rail,2007.0
232,Xizang Bei Lu (North Xizang Road),121.46521615834178,31.26657215393803,heavy_rail,2007.0
233,Zhongxing Lu (Zhongxing Road),121.4640817571875,31.255528885608143,heavy_rail,2007.0
234,Qufu Lu (Qufu Road),121.46700761441082,31.244844775605955,heavy_rail,2007.0
235,Dashijie,121.4754334155391,31.22820420078665,heavy_rail,2007.0
236,Laoximen,121.4780844128243,31.22156701692503,heavy_rail,2007.0
237,Lujiabang Lu (Lujiabang Road),121.48150182888531,31.214131049310296,heavy_rail,2007.0
238,Zhonghua Yìshu Gong (China Art Museum),121.48893837172335,31.18739501980582,heavy_rail,2007.0
239,Lingzhao Xincun,121.48510319825363,31.142978418593273,heavy_rail,2009.0
240,Luheng Lu (Luheng Road),121.49394942207914,31.12045244734884,heavy_rail,2009.0
241,Pujiang Zhen (Pujiang Town),121.50177564955254,31.098324939867183,heavy_rail,2009.0
242,Lianhang Lu (Lianhang Road),121.5060806806303,31.07616501650665,heavy_rail,2009.0
243,Shendu Gonglu (Shendu Highway),121.50768314665265,31.064115390281728,heavy_rail,2009.0
244,Jiangpu Lu (Jiangpu Road),121.51416273076217,31.27710335518013,heavy_rail,2007.0
245,Anshan Xincun,121.50545869576047,31.274999688709812,heavy_rail,2007.0
246,Siping Lu (Siping Road),121.49674890283302,31.276988358712103,heavy_rail,2007.0
247,Quyang Lu (Quyang Road),121.48636632392248,31.278591090342985,heavy_rail,2007.0
248,Chengshan Lu (Chengshan Road),121.49181947591012,31.173030342266046,heavy_rail,2009.0
249,Jiangyue Lu (Jiangyue Road),121.50441559800151,31.085639895121474,heavy_rail,2009.0
250,Renmin Guangchang (People's Square),121.47060579942354,31.235695418249108,heavy_rail,2007.0
251,Jinqiao Lu (Jinqiao Road),121.57655118477254,31.258291411628534,heavy_rail,2007.0
252,Gaoqing Lu (Gaoqing Road),121.51041343589219,31.162650008091934,heavy_rail,2007.0
253,Gangcheng Lu (Gangcheng Road),121.56882354899818,31.355174478726028,heavy_rail,2007.0
254,Waigaoqiao Baoshuiqu Bei (North Waigaoqiao Free Trade Zone),121.582687573111,31.350050901181262,heavy_rail,2007.0
255,Hangjin Lu (Hangjin Road),121.58846470653458,31.340073687570467,heavy_rail,2007.0
256,Zhouhai Lu (Zhouhai Road),121.58509653381549,31.314090977531393,heavy_rail,2007.0
257,Beiyangjing Lu (Beiyangjing Road),121.5488956702934,31.241688000298154,heavy_rail,2007.0
258,Shiji Dadao (Century Avenue),121.52265128427791,31.23064086032676,heavy_rail,2007.0
259,Lancun Lu (Lancun Road),121.52342487983378,31.213825636512354,heavy_rail,2007.0
260,Yunshan Lu (Yunshan Road),121.56857813758664,31.252616173417536,heavy_rail,2007.0
261,Pudian Lu (Pudian Road),121.52447283371038,31.222352827790658,heavy_rail,2007.0
262,Linyi Xincun,121.51320282009425,31.196165921485076,heavy_rail,2007.0
263,Waigaoqiao Baoshuiqu Nan (South Waigaoqiao Free Trade Zone),121.59753901544673,31.32404567713951,heavy_rail,2007.0
264,Wuzhou Dadao (Wuzhou Avenue),121.58498842110316,31.30455360998276,heavy_rail,2007.0
265,Dongjing Lu (Dongjing Road),121.58465926159977,31.292754197955162,heavy_rail,2007.0
266,Jufeng Lu (Jufeng Road),121.58427110095442,31.28333817179069,heavy_rail,2007.0
267,Wulian Lu (Wulian Road),121.58373070318846,31.273951870023822,heavy_rail,2007.0
268,Boxing Lu (Boxing Road),121.58245617720121,31.266213435699555,heavy_rail,2007.0
269,Deping Lu (Deping Road),121.5600433317993,31.247522751705887,heavy_rail,2007.0
270,Minsheng Lu (Minsheng Road),121.5393479578712,31.237995726351997,heavy_rail,2007.0
271,Yuanshen Tiyuzhongxin (Yuanshen Stadium(Yuanshen Stadium),121.52967393666893,31.23497413051939,heavy_rail,2007.0
272,Gaoke Xi Lu (West Gaoke Road),121.50538042236855,31.18683571294885,heavy_rail,2007.0
273,Dongming Lu (Dongming Road),121.50612102176689,31.1751049850549,heavy_rail,2007.0
274,Huaxia Xi Lu (West Huaxia Road),121.51106241031457,31.15195645398462,heavy_rail,2007.0
275,Shangnan Lu (Shangnan Road),121.50085467590117,31.151082135634724,heavy_rail,2007.0
276,Lingyan Nan Lu (South Lingyan Road),121.48946862196578,31.150562554733426,heavy_rail,2007.0
277,Dongfang Tiyu Zhongxin (Oriental Sports Center),121.47244411898004,31.15573593594081,heavy_rail,2011.0
278,Shanghai Ertong Yixue Zhongxin (Shanghai Children's Medical Center),121.51928832974681,31.206218583067397,heavy_rail,2007.0
279,Jing'an Si (Jing'an Temple),121.44345357844705,31.22499329578562,heavy_rail,2009.0
280,Longyang Lu (Longyang Road),121.5542286705583,31.205326860376744,heavy_rail,2009.0
281,Dong'an Lu (Dong'an Road),121.44979840541112,31.19315845152903,heavy_rail,2009.0
282,Gaoke Xi Lu (West Gaoke Road),121.50540288589752,31.18781151789844,heavy_rail,2009.0
283,Meilan Hu (Meilan Lake),121.34530023026633,31.40376464088729,heavy_rail,2010.0
284,Luonan Xincun,121.35305148321868,31.38974417765175,heavy_rail,2010.0
285,Panguang Lu (Panguang Road),121.3523231120485,31.364886219619862,heavy_rail,2010.0
286,Liuhang,121.35809006470726,31.359101790866944,heavy_rail,2010.0
287,Gucun Gongyuan (Gucun Park),121.36779424918029,31.347255226952697,heavy_rail,2010.0
288,Qihua Lu (Qihua Road),121.36760812687743,31.326542196456955,heavy_rail,2010.0
289,Nanchen Lu (Nanchen Road),121.39399854077777,31.323171444383448,heavy_rail,2009.0
290,Changshou Lu (Changshou Road),121.43395479854796,31.241206530137628,heavy_rail,2009.0
291,Changping Lu (Changping Road),121.43791716646507,31.236000650439266,heavy_rail,2009.0
292,Zhaojiabang Lu (Zhaojiabang Road),121.44534188228943,31.20217645190145,heavy_rail,2009.0
293,Longhua Zhong Lu (Middle Longhua Road),121.45307349747208,31.187501892627083,heavy_rail,2009.0
294,Houtan,121.46837189727029,31.173623704802722,heavy_rail,2009.0
295,Changqing Lu (Changqing Road),121.48158878360414,31.177023127612916,heavy_rail,2009.0
296,Yaohua Lu (Yaohua Road),121.49007722493508,31.180428452211984,heavy_rail,2009.0
297,Yuntai Lu (Yuntai Road),121.49612456401957,31.184133724527427,heavy_rail,2009.0
298,Yanggao Nan Lu (South Yanggao Road),121.52086154014506,31.189598814908038,heavy_rail,2009.0
299,Jinxiu Lu (Jinxiu Road),121.5355272717112,31.189642726796208,heavy_rail,2009.0
300,Fanghua Lu (Fanghua Road),121.5451869990896,31.19644602034421,heavy_rail,2009.0
301,Huamu Lu (Huamu Road),121.55754818627389,31.215100771592247,heavy_rail,2009.0
302,Shanghai Daxue (Shanghai University),121.38339506859631,31.322268758912813,heavy_rail,2009.0
303,Shangda Lu (Shangda Road),121.40415656321898,31.316058879325197,heavy_rail,2009.0
304,Changzhong Lu (Changzhong Road),121.40881550477877,31.305553186062184,heavy_rail,2009.0
305,Dachang Zhen (Dachang Town),121.41182364681089,31.295330487842833,heavy_rail,2009.0
306,Xingzhi Lu (Xingzhi Road),121.41696290732034,31.28652309949335,heavy_rail,2009.0
307,Dahuasan Lu (Dahuasan Road),121.41835358793901,31.276110819789068,heavy_rail,2009.0
308,Xincun Lu (Xincun Road),121.41796668824395,31.266210707106865,heavy_rail,2009.0
309,Langao Lu (Langao Road),121.41718586833673,31.258014316032913,heavy_rail,2009.0
310,Changshu Lu (Changshu Road),121.44452947451572,31.215116180653737,heavy_rail,2009.0
311,Zhenping Lu (Zhenping Road),121.42702457764743,31.248543358916482,heavy_rail,2009.0
312,Yindu Lu (Yindu Road),121.38566577737924,31.091006678600436,heavy_rail,2003.0
313,Zhuanqiao,121.39726419589539,31.06906369826517,heavy_rail,2003.0
314,Chunshen Lu (Chunshen Road),121.38108759067745,31.100189593598472,heavy_rail,2003.0
315,Beiqiao,121.40559644110817,31.046928234177415,heavy_rail,2003.0
316,Xinzhuang,121.37958199248973,31.111933449474037,heavy_rail,0.0
317,Jianchuan Lu (Jianchuan Road),121.41191074733092,31.028548480507652,heavy_rail,2003.0
318,Dongchuan Lu (Dongchuan Road),121.41508217647589,31.0206247215975,heavy_rail,0.0
319,Huaning Lu (Huaning Road),121.39075118885677,31.009447188208824,heavy_rail,0.0
320,Wenjing Lu (Wenjing Road),121.37622502855464,31.005576155886047,heavy_rail,0.0
321,Minhang Kaifaqu (Minhang Development Zone),121.36462583959849,31.002474340811162,heavy_rail,0.0
322,Jiangchuan Lu (Jiangchuan Road),121.41839669431278,31.008851800868086,heavy_rail,0.0
323,Xidu,121.42808656848393,30.99130478303539,heavy_rail,0.0
324,Xiaotang,121.4369480181872,30.96882122621841,heavy_rail,0.0
325,Fengpu Dadao (Fengpu Avenue),121.44547974124896,30.9427054443958,heavy_rail,0.0
326,Huancheng Dong Lu (Huancheng Dong Road),121.4596477123111,30.933271500360377,heavy_rail,0.0
327,Wangyuan Lu (Wangyuan Road),121.4797005673177,30.93416785530235,heavy_rail,0.0
328,Jinhai Hu (Jinhai Lake),121.48780165116875,30.931701146830633,heavy_rail,0.0
329,Fengxian Xincheng,121.4915796835827,30.91796605500427,heavy_rail,0.0
330,Pingzhuang Gonglu (Pingzhuang Highway),121.49750554797527,30.89124640615165,heavy_rail,0.0
331,Baoshan Lu (Baoshan Road),121.47178341624883,31.253417468644866,heavy_rail,2007.0
332,Shanghai Huochezhan (Shanghai Railway),121.45299972920839,31.251669784823076,heavy_rail,2007.0
333,Pudong Dadong (Pudong Avenue),121.51613411302338,31.240881847131078,heavy_rail,2005.0
334,Linping Lu (Linping Road),121.4931245318678,31.26408447391522,heavy_rail,2005.0
335,Shanghai Tiyuguan (Shanghai Indoor Stadium),121.43259647097551,31.18461678876352,heavy_rail,2005.0
336,Shiji Dadao (Century Avenue),121.52338499332092,31.230644829944012,heavy_rail,2005.0
337,Shanghai Tiyu (Shanghai Stadium),121.43899924482275,31.187454312929276,heavy_rail,2005.0
338,Yangshupu Lu (Yangshupu Road),121.51272320820567,31.254473829809882,heavy_rail,2005.0
339,Dalian Lu (Dalian Road),121.50895130202633,31.25982093512694,heavy_rail,2005.0
340,Zhongtan Lu (Zhongtan Road),121.43630975470347,31.25640110562724,heavy_rail,2007.0
341,Zhenping Lu (Zhenping Road),121.42524119889134,31.248209111497623,heavy_rail,2007.0
342,Jinshajiang Lu (Jinshajiang Road),121.40862092984088,31.234034939433457,heavy_rail,2007.0
343,Yan'an Xi Lu (West Yan'an Road),121.41243680567885,31.211551849513754,heavy_rail,2007.0
344,Hongqiao Lu (Hongqiao Road),121.41605838256534,31.199179855276334,heavy_rail,2007.0
345,Dong'an Lu (Dong'an Road),121.4497362030977,31.192559171850235,heavy_rail,2005.0
346,Damuqiao Lu (Damuqiao Road),121.45930312357615,31.196219185058112,heavy_rail,2005.0
347,Luban Lu (Luban Road),121.47127079926486,31.201080059279604,heavy_rail,2007.0
348,Xizang Nan Lu (South Xizang Road),121.4859134779631,31.20423566196942,heavy_rail,2007.0
349,Nanpu Daqiao (Nanpu Bridge),121.49433767524766,31.210164768102175,heavy_rail,2007.0
350,Tangqiao,121.51206112871677,31.2129010906648,heavy_rail,2007.0
351,Lancun Lu (Lancun Road),121.5235364641992,31.213693972984288,heavy_rail,2005.0
352,Pudian Lu (Pudian Road),121.52786379914619,31.2244604972456,heavy_rail,2005.0
353,Hailun Lu (Hailun Road),121.48397359107548,31.26092198929254,heavy_rail,2005.0
354,Caoyang Lu (Caoyang Road),121.41307569470027,31.240997025656327,heavy_rail,2007.0
355,Zhongshan Gongyuan (Zhongshan Park),121.41100905070799,31.219740238094396,heavy_rail,2007.0
356,Yishan Lu (Yishan Road),121.42254324943198,31.18860487326785,heavy_rail,2007.0
357,Yan'an Xi Lu (West Yan'an Road),121.41250838218332,31.211435508152476,heavy_rail,2000.0
358,Jinshajiang Lu (Jinshajiang Road),121.40856164234816,31.234084460347177,heavy_rail,2000.0
359,Chifeng Lu (Chifeng Road),121.4778161839431,31.28325070576588,heavy_rail,2000.0
360,Yishan Lu (Yishan Road),121.42247927970017,31.18859769975615,heavy_rail,2000.0
361,Jiangwan Zhen (Jiangwan Town),121.48055511403115,31.30752481302023,heavy_rail,2000.0
362,Hongkou Zuqiu (Hongkou Football Stadium),121.47459547905768,31.273267118918373,heavy_rail,2000.0
363,Dabaishu,121.47863192363971,31.291360488421354,heavy_rail,2000.0
364,Hongqiao Lu (Hongqiao Road),121.41619,31.199210144987433,heavy_rail,2000.0
365,Shilong Lu (Shilong Road),121.43856706025072,31.159774044814778,heavy_rail,2000.0
366,Longcao Lu (Longcao Road),121.43982979002197,31.17124577853908,heavy_rail,2000.0
367,Caoxi Lu (Caoxi Road),121.4337490531492,31.178550283735284,heavy_rail,2000.0
368,Youyi Lu (Youyi Road),121.47153052633291,31.40571952217627,heavy_rail,2006.0
369,Tieli Lu (Tieli Road),121.4549999652715,31.409624276679523,heavy_rail,2006.0
370,Changjiang Nan Lu (South Changjiang Road),121.4867514351414,31.33389435966373,heavy_rail,2006.0
371,Baoshan Lu (Baoshan Road),121.47176786120484,31.253436829611548,heavy_rail,2000.0
372,Shanghai Nanzhan (Shanghai South Railway),121.42663522728883,31.155272679496584,heavy_rail,2000.0
373,Dongbaoxing Lu (Dongbaoxing Road),121.4757136030342,31.261527723641834,heavy_rail,2000.0
374,Yingao Xi Lu (West Yingao Road),121.48030460059226,31.321451290319956,heavy_rail,2006.0
375,Songfa Lu (Songfa Road),121.49570307140397,31.34694400527306,heavy_rail,2006.0
376,	Zhanghuabang,121.49360798318173,31.361089437502685,heavy_rail,2006.0
377,Songbin Lu (Songbin Road),121.48810453026334,31.373639553813263,heavy_rail,2006.0
378,Shuichan Lu (Shuichan Road),121.4826864238218,31.38452725862146,heavy_rail,2006.0
379,Baoyang Lu (Baoyang Road),121.47466200633113,31.397645349668053,heavy_rail,2006.0
380,Jiangyang Bei Lu (North Jiangyang Road),121.43444962953174,31.410125388398612,heavy_rail,2006.0
381,Shanghai Huochezhan (Shanghai Railway),121.45305620898475,31.251721477505786,heavy_rail,2000.0
382,Zhongtan Lu (Zhongtan Road),121.43629216025383,31.256453341722796,heavy_rail,2000.0
383,Zhenping Lu (Zhenping Road),121.42520872896937,31.248299178973436,heavy_rail,2000.0
384,Caoyang Lu (Caoyang Road),121.41304603033757,31.241112252827975,heavy_rail,2000.0
385,Zhongshan Gongyuan (Zhongshan Park),121.41111131337583,31.219788175203593,heavy_rail,2000.0
386,Loushanguan Lu (Loushanguan Road),121.39950365021105,31.21288192920038,heavy_rail,2006.0
387,Songhong Lu (Songhong Road),121.35677796109758,31.220076647845445,heavy_rail,2006.0
388,Beixinjing,121.36929273496605,31.218608139768918,heavy_rail,2006.0
389,Weining Lu (Weining Road),121.38095075056367,31.217000885745463,heavy_rail,2006.0
390,Lujiazui,121.50066711210539,31.23879822028332,heavy_rail,1999.0
391,Dongchang Lu (Dongchang Road),121.51035490328195,31.2355095984513,heavy_rail,1999.0
392,Shiji Dadao (Century Avenue),121.52294650892486,31.230741578363094,heavy_rail,1999.0
393,Shanghai Kejiguan (Shanghai Science and Technology Museum),121.53862861546872,31.221878555337028,heavy_rail,1999.0
394,Shiji Gongyuan (Century Park),121.54634871387486,31.212569804874263,heavy_rail,1999.0
395,Longyang Lu (Longyang Road),121.5534964593769,31.204710340269855,heavy_rail,1999.0
396,Tangzhen,121.65038338400115,31.21503817590451,heavy_rail,2010.0
397,Chuangxin Zhong Lu(Middle Chuangxin Road),121.66796891246383,31.21284279464264,heavy_rail,2010.0
398,Huaxia Dong Lu (East Huaxia Road),121.6768013616936,31.197584273850453,heavy_rail,2010.0
399,Renmin Guangchang (People's Square),121.46914867351069,31.23584933785604,heavy_rail,1999.0
400,Xujing Dong (East Xujing),121.29137887918262,31.188430782997372,heavy_rail,2010.0
401,Nanjing Dong Lu (East Nanjing Road),121.47967319222711,31.239161853890447,heavy_rail,1999.0
402,Zhangjiang Gaoke (Zhangjiang Hi-Tech Park),121.58203565398111,31.203983696866572,heavy_rail,2000.0
403,Guanglan Lu (Guanglan Road),121.61547554843742,31.213426886886523,heavy_rail,2010.0
404,Chuansha,121.69384392984728,31.188847842338504,heavy_rail,2010.0
405,Lingkong Lu (Lingkong Road),121.7187359469487,31.194044813254507,heavy_rail,2010.0
406,Yuandong Dadao (Yuandong Avenue),121.7500939391411,31.201481318719814,heavy_rail,2010.0
407,Hongqiao Huochezhan (Hongqiao Railway),121.31336983286735,31.195684641810395,heavy_rail,2010.0
408,Hongqiao Erhao Hangzhanlou (Hongqiao Airport Terminal 2),121.32199427973438,31.19629913604615,heavy_rail,2010.0
409,Zhongshan Gongyuan (Zhongshan Park),121.41132553492008,31.21988676849496,heavy_rail,1999.0
410,Jiangsu Lu (Jiangsu Road),121.42636615434276,31.221184857617374,heavy_rail,1999.0
411,Jing'an Si (Jing'an Temple),121.44211242453574,31.225242476916392,heavy_rail,1999.0
412,Nanjing Xi Lu (West Nanjing Road),121.45636205348978,31.23205365885299,heavy_rail,1999.0
413,Jinke Lu (Jinke Road),121.596378080629,31.206482288343718,heavy_rail,2010.0
414,Pudong Guoji Jichang(Pudong International Airport),121.80161922259362,31.15197176874048,heavy_rail,2010.0
415,Haitiansan Lu (Haitiansan Road),121.79293851160806,31.170236688493613,heavy_rail,2010.0
416,Zhongshan Bei Lu (North Zhongshan Road),121.45483727171546,31.259908203562475,heavy_rail,2004.0
417,Shanghai Tiyuguan (Shanghai Indoor Stadium),121.43166219906243,31.184368661242928,heavy_rail,1993.0
418,Xinzhuang,121.38047991759328,31.112062811254404,heavy_rail,1996.0
419,Waihuanlu,121.38873386196411,31.12324080858393,heavy_rail,1996.0
420,Lianhua Lu (Lianhua Road),121.39799346318222,31.132984183847455,heavy_rail,1996.0
421,Caobao Lu (Caobao Road),121.43033348012989,31.170306673891687,heavy_rail,1993.0
422,Xujiahui,121.43379339766926,31.194306097778888,heavy_rail,1993.0
423,Hengshan Lu (Hengshan Road),121.44264323066619,31.207627908443257,heavy_rail,1995.0
424,Renmin Guangchang (People's Square),121.47024857441897,31.23574324319046,heavy_rail,1995.0
425,Xinzha Lu (Xinzha Road),121.4636235702805,31.24088722285461,heavy_rail,1995.0
426,Hanzhong Lu (Hanzhong Road),121.45360366750361,31.243296224854276,heavy_rail,1995.0
427,Shanghai Huochezhan (Shanghai Railway),121.4504087704687,31.250471717366906,heavy_rail,1995.0
428,Yanchang Lu (Yanchang Road),121.4509859403924,31.273336692354363,heavy_rail,2004.0
429,Shanghai Maxi Cheng (Shanghai Circus World),121.44756898613417,31.28118510321019,heavy_rail,2004.0
430,Wenshui Lu (Wenshui Road),121.44551627552448,31.294588359690295,heavy_rail,2004.0
431,Pengpu Xincun,121.44409428371682,31.30879700300416,heavy_rail,2004.0
432,Jinjiang Leyuan (Jinjiang Park),121.40898584658459,31.143854997551813,heavy_rail,1993.0
433,Changshu Lu (Changshu Road),121.4451808238104,31.21445609002194,heavy_rail,1995.0
434,Shanghai Nanzhan (Shanghai South Railway),121.4240828331059,31.15550377677783,heavy_rail,1993.0
435,Shaanxi Nan Lu (South Shaanxi Road),121.45346501933562,31.218328260111203,heavy_rail,1995.0
436,Huangpi Nan Lu (South Huangpi Road),121.46986106792895,31.225141090887234,heavy_rail,1995.0
437,Gongkang Lu (Gongkang Road),121.44295174833354,31.319685386864236,heavy_rail,2004.0
438,Tonghe Xincun,121.4369490818911,31.333048838469253,heavy_rail,2004.0
439,Hulan Lu (Hulan Road),121.43305307467273,31.341851711205848,heavy_rail,2004.0
440,Gongfu Xincun,121.4294852954925,31.35692863392579,heavy_rail,2004.0
441,Bao'an Gonglu (Bao'an Highway),121.42641133055014,31.371492994464163,heavy_rail,2007.0
442,Youyi Xi Lu (West Youyi Road),121.42318704030669,31.383864490151765,heavy_rail,2007.0
443,Fujin Lu (Fujin Road),121.4203317215156,31.39295663536342,heavy_rail,2007.0
444,,121.38403161059836,31.196609422181453,brt,2017.0
445,,121.35444242390285,31.18536216372355,brt,2017.0
446,,121.3792871138528,31.193993045218022,brt,2017.0
447,,121.37130242122942,31.191125053306592,brt,2017.0
448,,121.36308399924053,31.18843319374477,brt,2017.0
449,,121.34707941982049,31.18303673732538,brt,2017.0
450,,121.48699575706695,31.235079056654655,brt,2017.0
451,,121.34008265514677,31.17803255676175,brt,2017.0
452,,121.48186115807397,31.233039282725656,brt,2017.0
453,,121.47410971581398,31.23069780621642,brt,2017.0
454,,121.33549218521341,31.174833543274488,brt,2017.0
455,,121.46903775589517,31.22812977431148,brt,2017.0
456,,121.465284454059,31.226527408778043,brt,2017.0
457,,121.45620457523017,31.225781634707264,brt,2017.0
458,,121.44957739277105,31.225360006342775,brt,2017.0
459,,121.44047808778303,31.222671115233076,brt,2017.0
460,,121.43332816471509,31.21939885224381,brt,2017.0
461,,121.42801238797489,31.216009513191977,brt,2017.0
462,,121.4454055129401,31.223832727166176,brt,2017.0
463,,121.42406308666443,31.21259173302252,brt,2017.0
464,,121.41866832893936,31.21154124815665,brt,2017.0
465,,121.41187671629581,31.210099386691,brt,2017.0
466,,121.39751850035367,31.202991274601573,brt,2017.0
467,,121.3882221794945,31.199019721448252,brt,2017.0
468,,121.33005025714164,31.17362992606492,brt,2017.0
469,Jufeng Lu (Jufeng Road),121.5857077943939,31.282266678357985,commuter_rail,2013.0
470,Jinping Lu (Jinping Road),121.40643046267508,31.013369552099505,None,0.0
