nodeID,nodeLabel,latitude,longitude,mode,year
0,C,103.98895263913704,1.362009843228208,people_mover,2007.0
1,D,103.99181177476515,1.36100173529627,people_mover,1990.0
2,B,103.98735906701137,1.358428324828807,people_mover,2007.0
3,E,103.99002041912138,1.357097649391065,people_mover,1990.0
4,F,103.98863533581624,1.353378997741345,people_mover,2007.0
5,A,103.98546838149178,1.353901789231955,people_mover,2007.0
6,A South,103.98381182430455,1.350154286209843,people_mover,2007.0
7,VivoCity,103.8225469361295,1.265092748646862,people_mover,2007.0
8,Resorts World,103.8209724542675,1.255537778090035,people_mover,2010.0
9,Beach,103.81777509142994,1.251217661042196,people_mover,2007.0
10,Imbiah,103.81946011134886,1.253898713578577,people_mover,2007.0
11,Tan Kah Kee,103.80700050144588,1.326032525768756,heavy_rail,2015.0
12,Promenade,103.86102052413827,1.292642092083199,heavy_rail,2013.0
13,Bayfront,103.8590452521903,1.281824076903021,heavy_rail,2013.0
14,Downtown,103.852805336821,1.279454238259035,heavy_rail,2013.0
15,Bugis,103.85683156005464,1.299598258314479,heavy_rail,2013.0
16,Telok Ayer,103.84848709627539,1.282254152048083,heavy_rail,2013.0
17,Chinatown,103.84389520498587,1.284925842926597,heavy_rail,2013.0
18,Rochor,103.85261139290832,1.303986624416415,heavy_rail,2015.0
19,Little India,103.84915313332353,1.306700738519657,heavy_rail,2015.0
20,Newton,103.8381561012955,1.313675003546816,heavy_rail,2015.0
21,Botanic Gardens,103.81598931409229,1.322561961085714,heavy_rail,2015.0
22,Stevens,103.82599148423584,1.320028238281342,heavy_rail,2015.0
23,Bukit Panjang,103.7620527438976,1.378561319287515,heavy_rail,2015.0
24,Sixth Avenue,103.79721493661086,1.330691320073832,heavy_rail,2015.0
25,King Albert Park,103.78356912969767,1.336019758371472,heavy_rail,2015.0
26,Beauty World,103.77599715708581,1.341317888375029,heavy_rail,2015.0
27,Hillview,103.76712209250381,1.362648410021672,heavy_rail,2015.0
28,Cashew,103.76461460063902,1.369550303348516,heavy_rail,2015.0
29,Fort Canning,103.84436936137445,1.292348655058916,heavy_rail,2017.0
30,Bencoolen,103.84980726150087,1.29827682445864,heavy_rail,2017.0
31,Jalan Besar,103.85542992057225,1.305515325620192,heavy_rail,2017.0
32,Geylang Bahru,103.87184654259738,1.321529436323203,heavy_rail,2017.0
33,Mattar,103.88292886451478,1.326936914812506,heavy_rail,2017.0
34,MacPherson,103.8894763275755,1.326224238061485,heavy_rail,2017.0
35,Kaki Bukit,103.90817958263216,1.334877790183626,heavy_rail,2017.0
36,Bedok North,103.91811494142587,1.334589911840851,heavy_rail,2017.0
37,Tampines West,103.9384860861831,1.345516862972715,heavy_rail,2017.0
38,Tampines,103.94297304995246,1.355124602101284,heavy_rail,2017.0
39,Tampines East,103.95486133378904,1.356128990492763,heavy_rail,2017.0
40,Upper Changi,103.96140018324775,1.341697254781636,heavy_rail,2017.0
41,Expo,103.96225021979265,1.335393982048434,heavy_rail,2017.0
42,Xilin,103.96516539752054,1.329553015899791,heavy_rail,2025.0
43,Bendemeer,103.86279826894794,1.313640207153029,heavy_rail,2017.0
44,Bedok Reservoir,103.93184283617765,1.336672575947831,heavy_rail,2017.0
45,Ubi,103.89927998796418,1.32999142091094,heavy_rail,2017.0
46,Sungei Bedok,103.95690492440838,1.320498494182724,heavy_rail,2025.0
47,Hume,103.7689017380008,1.354865485642709,heavy_rail,2025.0
48,Khatib,103.83299586116107,1.41731660743541,heavy_rail,1989.0
49,Raffles Place,103.85153127088569,1.284367854229054,heavy_rail,1987.0
50,City Hall,103.85263872272827,1.29306260703649,heavy_rail,1987.0
51,Marina South Pier,103.86275090682523,1.271708820215679,heavy_rail,2014.0
52,Marina Bay,103.85460407509544,1.275676017285704,heavy_rail,1990.0
53,Yew Tee,103.74742890877621,1.397553536504446,heavy_rail,1996.0
54,Kranji,103.76201152420924,1.425209426131062,heavy_rail,1996.0
55,Marsiling,103.77408810660819,1.432551687385057,heavy_rail,1996.0
56,Woodlands,103.78651033930475,1.436979813731355,heavy_rail,1996.0
57,Admiralty,103.80097069067153,1.44063037525126,heavy_rail,1996.0
58,Sembawang,103.8200204737073,1.449063958964061,heavy_rail,1996.0
59,Canberra,103.82958843487705,1.443245146681363,heavy_rail,2020.0
60,Yio Chu Kang,103.84493789747387,1.38178152774266,heavy_rail,1987.0
61,Ang Mo Kio,103.84951167124137,1.370068152638851,heavy_rail,1987.0
62,Bishan,103.84823127420866,1.351288316154692,heavy_rail,1987.0
63,Braddell,103.84677261633567,1.340599801217976,heavy_rail,1987.0
64,Toa Payoh,103.84758877944857,1.332366924489502,heavy_rail,1987.0
65,Novena,103.84351150222102,1.320069153387166,heavy_rail,1987.0
66,Newton,103.83838459045734,1.312657828773311,heavy_rail,1987.0
67,Orchard,103.83218641535325,1.303208057600017,heavy_rail,1987.0
68,Somerset,103.83852673521358,1.300278479909039,heavy_rail,1987.0
69,Dhoby Ghaut,103.8460506734462,1.298747727510744,heavy_rail,1987.0
70,Yishun,103.83504130145366,1.429375458559605,heavy_rail,1989.0
71,Dhoby Ghaut,103.84611090525136,1.298937876784559,heavy_rail,2010.0
72,Bras Basah,103.85058330513417,1.296870890910734,heavy_rail,2010.0
73,Esplanade,103.85575637901574,1.293376369747804,heavy_rail,2010.0
74,Nicoll Highway,103.86358208403287,1.299678168268181,heavy_rail,2010.0
75,Stadium,103.8754209052513,1.302867277213505,heavy_rail,2010.0
76,Mountbatten,103.88252244218161,1.306229400357707,heavy_rail,2010.0
77,Dakota,103.8886554935445,1.308401199354518,heavy_rail,2010.0
78,Promenade,103.86110635200308,1.292648048233454,heavy_rail,2010.0
79,Paya Lebar,103.89217787366849,1.31745356723591,heavy_rail,2010.0
80,MacPherson,103.89029181048159,1.326501815366809,heavy_rail,2010.0
81,Tai Seng,103.88831637901573,1.335436969240527,heavy_rail,2010.0
82,Bartley,103.87973312120384,1.342859369714547,heavy_rail,2009.0
83,one-north,103.78711536807108,1.299366922954555,heavy_rail,2011.0
84,Buona Vista,103.79047948146061,1.306463792952194,heavy_rail,2011.0
85,Holland Village,103.79619615895123,1.312403870544234,heavy_rail,2011.0
86,Farrer Road,103.80754694482556,1.317411012137962,heavy_rail,2011.0
87,Botanic Gardens,103.81500876084128,1.321966554455353,heavy_rail,2011.0
88,Caldecott,103.8397032191092,1.337525037495015,heavy_rail,2011.0
89,Marymount,103.83938115510712,1.349037326750324,heavy_rail,2009.0
90,Bishan,103.84851733071301,1.351432323574726,heavy_rail,2009.0
91,Lorong Chuan,103.86413601263335,1.35161202660789,heavy_rail,2009.0
92,Kent Ridge,103.78451543315657,1.29372,heavy_rail,2011.0
93,Haw Par Villa,103.78175237074089,1.282683150164771,heavy_rail,2011.0
94,Labrador Park,103.80277742920713,1.272317924520798,heavy_rail,2011.0
95,Telok Blangah,103.80980635159602,1.270630474937306,heavy_rail,2011.0
96,HarbourFront,103.82217524251452,1.265299023034227,heavy_rail,2011.0
97,Bayfront,103.85909912489126,1.281797051377254,heavy_rail,2012.0
98,Marina Bay,103.8551544909842,1.27576826889971,heavy_rail,2012.0
99,Pasir Panjang,103.79155331547184,1.276185345507249,heavy_rail,2011.0
100,Serangoon,103.87225602845305,1.350749989756227,heavy_rail,2009.0
101,Prince Edward Road,103.84804989683033,1.273496111270128,heavy_rail,2026.0
102,Keppel,103.8305222505724,1.270359403937823,heavy_rail,2026.0
103,Cantonment,103.83625942459933,1.272921935256243,heavy_rail,2026.0
104,Woodlands South,103.79380125232993,1.427306883369134,heavy_rail,2020.0
105,Woodlands,103.78802931550622,1.436173530212222,heavy_rail,2020.0
106,Caldecott,103.84017741381884,1.33733019808743,heavy_rail,2021.0
107,Woodlands North,103.78576222412353,1.448347608848873,heavy_rail,2020.0
108,Gardens by the Bay,103.86802746607935,1.279227080457204,heavy_rail,2023.0
109,Orchard Boulevard,103.82406282525733,1.302512548593445,heavy_rail,2023.0
110,Stevens,103.82554052028354,1.319505489519045,heavy_rail,2023.0
111,Bayshore,103.94146595141109,1.313109294981217,heavy_rail,2024.0
112,Siglap,103.93006212052131,1.309923095690635,heavy_rail,2024.0
113,Marine Terrace,103.9161897597856,1.307031836480505,heavy_rail,2024.0
114,Founders' Memorial,103.86901847410508,1.291086455068651,heavy_rail,2027.0
115,Bedok South,103.94990563783085,1.317082256551032,heavy_rail,2025.0
116,Upper Thomson,103.8326887565883,1.354604839760064,heavy_rail,2021.0
117,Bright Hill,103.83344229586992,1.363742808216788,heavy_rail,2021.0
118,Springleaf,103.81805450606686,1.398184386457564,heavy_rail,2021.0
119,Marine Parade,103.9068490747822,1.303814325009256,heavy_rail,2024.0
120,Tanjong Katong,103.89732343094721,1.299217478162959,heavy_rail,2024.0
121,Katong Park,103.88629001181687,1.297854871852451,heavy_rail,2024.0
122,Tanjong Rhu,103.87351283289047,1.297128067773016,heavy_rail,2024.0
123,Marina South,103.86323586676235,1.274100206278238,heavy_rail,2027.0
124,Marina Bay,103.85556581733127,1.274510389401019,heavy_rail,2023.0
125,Maxwell,103.84391436792282,1.280559615579548,heavy_rail,2023.0
126,Outram Park,103.83916685775085,1.281677113954288,heavy_rail,2023.0
127,Lentor,103.83662128072136,1.384868154684549,heavy_rail,2021.0
128,Mayflower,103.83688569337576,1.372450843044287,heavy_rail,2021.0
129,Shenton Way,103.85054484177127,1.277664139539358,heavy_rail,2023.0
130,Havelock,103.83359380342505,1.288040841130324,heavy_rail,2023.0
131,Great World,103.83357898456546,1.294603602010392,heavy_rail,2023.0
132,Orchard,103.83137043381579,1.302897442262079,heavy_rail,2023.0
133,Napier,103.81885592025789,1.306822228447927,heavy_rail,2023.0
134,Mount Pleasant,103.83515342999635,1.328577001509739,heavy_rail,2027.0
135,Raffles Place,103.851461767539,1.284369691326091,heavy_rail,1987.0
136,Dover,103.77858652439625,1.31139906291456,heavy_rail,2001.0
137,City Hall,103.85272211868556,1.293099657354276,heavy_rail,1989.0
138,Aljunied,103.88288869337742,1.316443214616029,heavy_rail,1990.0
139,Kallang,103.87135194018254,1.311473504374831,heavy_rail,1990.0
140,Lavender,103.86287478106289,1.307472510788529,heavy_rail,1990.0
141,Bugis,103.85582436502574,1.300609038576567,heavy_rail,1990.0
142,Tanah Merah,103.94653253982004,1.327199518652138,heavy_rail,1990.0
143,Paya Lebar,103.89294684482883,1.318124440873532,heavy_rail,1990.0
144,Changi Airport,103.98857881991789,1.357298689358936,heavy_rail,2002.0
145,Expo,103.96164165335159,1.334710505001198,heavy_rail,2001.0
146,Pasir Ris,103.94927631721987,1.373076466309101,heavy_rail,1990.0
147,Tampines,103.94518693775046,1.353246305234677,heavy_rail,1990.0
148,Joo Koon,103.67818011477073,1.327721291905817,heavy_rail,2009.0
149,Pioneer,103.69739179850143,1.337579480391852,heavy_rail,2009.0
150,Gul Circle,103.66065239647435,1.319572386041841,heavy_rail,2017.0
151,Tuas Crescent,103.64895487913589,1.32113180296777,heavy_rail,2017.0
152,Tuas West Road,103.63958871514961,1.330037935703118,heavy_rail,2017.0
153,Tuas Link,103.63659629655683,1.339735150927396,heavy_rail,2017.0
154,Tiong Bahru,103.82682767176857,1.28619799630367,heavy_rail,1988.0
155,Redhill,103.81674543651064,1.289652182594906,heavy_rail,1988.0
156,Queenstown,103.80600443881588,1.294686704870244,heavy_rail,1988.0
157,Commonwealth,103.79826614886832,1.302478651628732,heavy_rail,1988.0
158,Buona Vista,103.7901024351754,1.307274863892222,heavy_rail,1988.0
159,Clementi,103.76521895991888,1.315116563661906,heavy_rail,1988.0
160,Jurong East,103.74220397691124,1.333066457541037,heavy_rail,1988.0
161,Chinese Garden,103.73255607665413,1.342397420445437,heavy_rail,1988.0
162,Lakeside,103.72069421267179,1.344245673672248,heavy_rail,1988.0
163,Eunos,103.90290615341502,1.319790857182539,heavy_rail,1990.0
164,Kembangan,103.91294480650993,1.321027364559811,heavy_rail,1990.0
165,Bedok,103.93016262915876,1.324028143643304,heavy_rail,1990.0
166,Simei,103.95336883893003,1.343197739337555,heavy_rail,1990.0
167,Boon Lay,103.70573252177964,1.338519980926962,heavy_rail,1990.0
168,Outram Park,103.83904134866434,1.28147986256042,heavy_rail,1987.0
169,Tanjong Pagar,103.8457385083228,1.276521999060749,heavy_rail,1987.0
170,Sengkang,103.89538104036956,1.391573426022404,heavy_rail,2003.0
171,Buangkok,103.89302343127366,1.382426884808254,heavy_rail,2006.0
172,Hougang,103.892570466118,1.371388223652588,heavy_rail,2003.0
173,Kovan,103.88500852422999,1.360111453832033,heavy_rail,2003.0
174,Serangoon,103.87356978198375,1.349553580369587,heavy_rail,2003.0
175,Woodleigh,103.87070814709801,1.338967311217473,heavy_rail,2011.0
176,Potong Pasir,103.86906487618677,1.331246366004194,heavy_rail,2003.0
177,Dhoby Ghaut,103.84530914359465,1.29999235301581,heavy_rail,2003.0
178,Little India,103.84974059066664,1.307370697195034,heavy_rail,2003.0
179,Farrer Park,103.85420841993582,1.312577017415046,heavy_rail,2003.0
180,Boon Keng,103.86172301657317,1.319900690750745,heavy_rail,2003.0
181,Clarke Quay,103.84661289385434,1.288732727109547,heavy_rail,2003.0
182,Chinatown,103.84339538345392,1.284194071634658,heavy_rail,2003.0
183,Outram Park,103.83963877076985,1.279751937463871,heavy_rail,2003.0
184,HarbourFront,103.82281081485274,1.265394842260719,heavy_rail,2003.0
185,Punggol Coast,103.91001755884643,1.415152289386,heavy_rail,2024.0
186,Punggol,103.90235690589223,1.405213837745574,heavy_rail,2003.0
187,Hong Kah,103.72608859692366,1.358050591630419,heavy_rail,2027.0
188,Choa Chu Kang,103.7440667641101,1.385145870153506,heavy_rail,2027.0
189,Choa Chu Kang West,103.73998059522157,1.37920175355062,heavy_rail,2027.0
190,Tengah,103.7297233053586,1.365501033841698,heavy_rail,2027.0
191,Woodlands Train Checkpoint,103.76967223971627,1.444703278463223,inter_city_rail,1998.0
192,Johor Bahru Sentral,103.76463976408206,1.463122615315086,inter_city_rail,2010.0
193,Compassvale,103.9005134810713,1.394474597019908,light_rail,2003.0
194,Rumbia,103.90597099036961,1.391465246965097,light_rail,2003.0
195,Bakau,103.90544931679307,1.388077420371658,light_rail,2003.0
196,Kangkar,103.90220053721316,1.383925745968298,light_rail,2003.0
197,Ranggung,103.897423003055,1.383964593285214,light_rail,2003.0
198,Sengkang,103.89541393395787,1.391723782605398,light_rail,2003.0
199,Cheng Lim,103.89380516021248,1.39626734034681,light_rail,2013.0
200,Farmway,103.8892351817259,1.397189704934576,light_rail,2007.0
201,Kupang,103.88122352357232,1.398199378170986,light_rail,2015.0
202,Thanggam,103.87563397027856,1.39735491270622,light_rail,2003.0
203,Fernvale,103.87623707109964,1.391969744437688,light_rail,2003.0
204,Layar,103.88014319233633,1.392126492607815,light_rail,2003.0
205,Tongkang,103.8857829409971,1.389425541097367,light_rail,2003.0
206,Renjong,103.89050843125187,1.38673574327747,light_rail,2003.0
207,Choa Chu Kang,103.74453252074542,1.38474501528653,light_rail,1999.0
208,South View,103.74529083094586,1.380268854264116,light_rail,1999.0
209,Keat Hong,103.74903325912419,1.378598661510566,light_rail,1999.0
210,Teck Whye,103.7536426322942,1.376663239158887,light_rail,1999.0
211,Phoenix,103.75801050252505,1.378614963875947,light_rail,1999.0
212,Bukit Panjang,103.76307125370823,1.377898317552422,light_rail,1999.0
213,Petir,103.76663330988382,1.37776834263092,light_rail,1999.0
214,Pending,103.7712582049441,1.37617057992999,light_rail,1999.0
215,Bangkit,103.77263923579545,1.380064640960043,light_rail,1999.0
216,Fajar,103.77080089234533,1.384541533070077,light_rail,1999.0
217,Segar,103.76958809900873,1.387786436078585,light_rail,1999.0
218,Jelapang,103.76450947168098,1.38667195731206,light_rail,1999.0
219,Senja,103.7623751095557,1.382675709616905,light_rail,1999.0
220,Cove,103.90585746625783,1.399466632490473,light_rail,2005.0
221,Meridian,103.90887406896593,1.396986311174501,light_rail,2005.0
222,Coral Edge,103.91263229672927,1.393894497371406,light_rail,2005.0
223,Riviera,103.91611088662881,1.394551447550484,light_rail,2005.0
224,Kadaloor,103.91644299759201,1.399612484586555,light_rail,2005.0
225,Oasis,103.91268025769796,1.402324332200777,light_rail,2007.0
226,Damai,103.90855724456436,1.405282757638992,light_rail,2011.0
227,Sam Kee,103.90490155474765,1.409726136342911,light_rail,2016.0
228,Teck Lee,103.90664271067982,1.412776938599606,light_rail,9999.0
229,Punggol Point,103.90663833569346,1.416883646592808,light_rail,2016.0
230,Samudera,103.90215791594261,1.415947362207305,light_rail,2017.0
231,Nibong,103.90036026544749,1.411890023059854,light_rail,2014.0
232,Soo Teck,103.8972702947089,1.40540655252957,light_rail,2014.0
233,Punggol,103.90239280902875,1.405255751046786,light_rail,2005.0
234,Sumang,103.89858586347874,1.408484037785814,light_rail,2014.0
235,Woodlands South,103.79380125232993,1.427306883369134,None,2020.0
236,Woodlands,103.78802931550622,1.436173530212222,None,2020.0
237,Tan Kah Kee,103.80700050144588,1.326032525768756,None,2015.0
238,Khatib,103.83299586116107,1.41731660743541,None,1989.0
239,Raffles Place,103.85153127088569,1.284367854229054,None,1987.0
240,City Hall,103.85263872272827,1.29306260703649,None,1987.0
241,Marina South Pier,103.86275090682523,1.271708820215679,None,2014.0
242,Hong Kah,103.72608859692366,1.358050591630419,None,2027.0
243,Marina Bay,103.85460407509544,1.275676017285704,None,1990.0
244,Yew Tee,103.74742890877621,1.397553536504446,None,1996.0
245,Kranji,103.76201152420924,1.425209426131062,None,1996.0
246,Marsiling,103.77408810660819,1.432551687385057,None,1996.0
247,Woodlands,103.78651033930475,1.436979813731355,None,1996.0
248,Admiralty,103.80097069067153,1.44063037525126,None,1996.0
249,Sembawang,103.8200204737073,1.449063958964061,None,1996.0
250,Raffles Place,103.851461767539,1.284369691326091,None,1987.0
251,Dover,103.77858652439625,1.31139906291456,None,2001.0
252,City Hall,103.85272211868556,1.293099657354276,None,1989.0
253,Aljunied,103.88288869337742,1.316443214616029,None,1990.0
254,Kallang,103.87135194018254,1.311473504374831,None,1990.0
255,Lavender,103.86287478106289,1.307472510788529,None,1990.0
256,Bugis,103.85582436502574,1.300609038576567,None,1990.0
257,Tanah Merah,103.94653253982004,1.327199518652138,None,1990.0
258,Paya Lebar,103.89294684482883,1.318124440873532,None,1990.0
259,Changi Airport,103.98857881991789,1.357298689358936,None,2002.0
260,Expo,103.96164165335159,1.334710505001198,None,2001.0
261,Pasir Ris,103.94927631721987,1.373076466309101,None,1990.0
262,Tampines,103.94518693775046,1.353246305234677,None,1990.0
263,Joo Koon,103.67818011477073,1.327721291905817,None,2009.0
264,Pioneer,103.69739179850143,1.337579480391852,None,2009.0
265,Gul Circle,103.66065239647435,1.319572386041841,None,2017.0
266,Tuas Crescent,103.64895487913589,1.32113180296777,None,2017.0
267,Tuas West Road,103.63958871514961,1.330037935703118,None,2017.0
268,Tuas Link,103.63659629655683,1.339735150927396,None,2017.0
269,Dhoby Ghaut,103.84611090525136,1.298937876784559,None,2010.0
270,Bras Basah,103.85058330513417,1.296870890910734,None,2010.0
271,Esplanade,103.85575637901574,1.293376369747804,None,2010.0
272,Nicoll Highway,103.86358208403287,1.299678168268181,None,2010.0
273,Stadium,103.8754209052513,1.302867277213505,None,2010.0
274,Mountbatten,103.88252244218161,1.306229400357707,None,2010.0
275,Dakota,103.8886554935445,1.308401199354518,None,2010.0
276,Promenade,103.86110635200308,1.292648048233454,None,2010.0
277,Paya Lebar,103.89217787366849,1.31745356723591,None,2010.0
278,MacPherson,103.89029181048159,1.326501815366809,None,2010.0
279,Tai Seng,103.88831637901573,1.335436969240527,None,2010.0
280,Bartley,103.87973312120384,1.342859369714547,None,2009.0
281,one-north,103.78711536807108,1.299366922954555,None,2011.0
282,Buona Vista,103.79047948146061,1.306463792952194,None,2011.0
283,Holland Village,103.79619615895123,1.312403870544234,None,2011.0
284,Farrer Road,103.80754694482556,1.317411012137962,None,2011.0
285,Botanic Gardens,103.81500876084128,1.321966554455353,None,2011.0
286,Caldecott,103.8397032191092,1.337525037495015,None,2011.0
287,Marymount,103.83938115510712,1.349037326750324,None,2009.0
288,Bishan,103.84851733071301,1.351432323574726,None,2009.0
289,Lorong Chuan,103.86413601263335,1.35161202660789,None,2009.0
290,Kent Ridge,103.78451543315657,1.29372,None,2011.0
291,Haw Par Villa,103.78175237074089,1.282683150164771,None,2011.0
292,Labrador Park,103.80277742920713,1.272317924520798,None,2011.0
293,Telok Blangah,103.80980635159602,1.270630474937306,None,2011.0
294,HarbourFront,103.82217524251452,1.265299023034227,None,2011.0
295,Bayfront,103.85909912489126,1.281797051377254,None,2012.0
296,Marina Bay,103.8551544909842,1.27576826889971,None,2012.0
297,Pasir Panjang,103.79155331547184,1.276185345507249,None,2011.0
298,Serangoon,103.87225602845305,1.350749989756227,None,2009.0
299,Sengkang,103.89538104036956,1.391573426022404,None,2003.0
300,Buangkok,103.89302343127366,1.382426884808254,None,2006.0
301,Hougang,103.892570466118,1.371388223652588,None,2003.0
302,Kovan,103.88500852422999,1.360111453832033,None,2003.0
303,Serangoon,103.87356978198375,1.349553580369587,None,2003.0
304,Woodleigh,103.87070814709801,1.338967311217473,None,2011.0
305,Potong Pasir,103.86906487618677,1.331246366004194,None,2003.0
306,Dhoby Ghaut,103.84530914359465,1.29999235301581,None,2003.0
307,Little India,103.84974059066664,1.307370697195034,None,2003.0
308,Farrer Park,103.85420841993582,1.312577017415046,None,2003.0
309,Boon Keng,103.86172301657317,1.319900690750745,None,2003.0
310,Clarke Quay,103.84661289385434,1.288732727109547,None,2003.0
311,Chinatown,103.84339538345392,1.284194071634658,None,2003.0
312,Outram Park,103.83963877076985,1.279751937463871,None,2003.0
313,HarbourFront,103.82281081485274,1.265394842260719,None,2003.0
314,Choa Chu Kang,103.74453252074542,1.38474501528653,None,1999.0
315,South View,103.74529083094586,1.380268854264116,None,1999.0
316,Keat Hong,103.74903325912419,1.378598661510566,None,1999.0
317,Teck Whye,103.7536426322942,1.376663239158887,None,1999.0
318,Phoenix,103.75801050252505,1.378614963875947,None,1999.0
319,Bukit Panjang,103.76307125370823,1.377898317552422,None,1999.0
320,Petir,103.76663330988382,1.37776834263092,None,1999.0
321,Pending,103.7712582049441,1.37617057992999,None,1999.0
322,Bangkit,103.77263923579545,1.380064640960043,None,1999.0
323,Fajar,103.77080089234533,1.384541533070077,None,1999.0
324,Segar,103.76958809900873,1.387786436078585,None,1999.0
325,Jelapang,103.76450947168098,1.38667195731206,None,1999.0
326,Senja,103.7623751095557,1.382675709616905,None,1999.0
327,Compassvale,103.9005134810713,1.394474597019908,None,2003.0
328,Rumbia,103.90597099036961,1.391465246965097,None,2003.0
329,Bakau,103.90544931679307,1.388077420371658,None,2003.0
330,Kangkar,103.90220053721316,1.383925745968298,None,2003.0
331,Ranggung,103.897423003055,1.383964593285214,None,2003.0
332,Sengkang,103.89541393395787,1.391723782605398,None,2003.0
333,Cheng Lim,103.89380516021248,1.39626734034681,None,2013.0
334,Farmway,103.8892351817259,1.397189704934576,None,2007.0
335,Kupang,103.88122352357232,1.398199378170986,None,2015.0
336,Thanggam,103.87563397027856,1.39735491270622,None,2003.0
337,Fernvale,103.87623707109964,1.391969744437688,None,2003.0
338,Layar,103.88014319233633,1.392126492607815,None,2003.0
339,Tongkang,103.8857829409971,1.389425541097367,None,2003.0
340,Renjong,103.89050843125187,1.38673574327747,None,2003.0
341,Cove,103.90585746625783,1.399466632490473,None,2005.0
342,Meridian,103.90887406896593,1.396986311174501,None,2005.0
343,Coral Edge,103.91263229672927,1.393894497371406,None,2005.0
344,Riviera,103.91611088662881,1.394551447550484,None,2005.0
345,Kadaloor,103.91644299759201,1.399612484586555,None,2005.0
346,Oasis,103.91268025769796,1.402324332200777,None,2007.0
347,Damai,103.90855724456436,1.405282757638992,None,2011.0
348,Sam Kee,103.90490155474765,1.409726136342911,None,2016.0
349,Teck Lee,103.90664271067982,1.412776938599606,None,9999.0
350,Punggol Point,103.90663833569346,1.416883646592808,None,2016.0
351,Samudera,103.90215791594261,1.415947362207305,None,2017.0
352,Nibong,103.90036026544749,1.411890023059854,None,2014.0
353,Soo Teck,103.8972702947089,1.40540655252957,None,2014.0
354,Punggol,103.90239280902875,1.405255751046786,None,2005.0
355,Sumang,103.89858586347874,1.408484037785814,None,2014.0
356,C,103.98895263913704,1.362009843228208,None,2007.0
357,D,103.99181177476515,1.36100173529627,None,1990.0
358,B,103.98735906701137,1.358428324828807,None,2007.0
359,E,103.99002041912138,1.357097649391065,None,1990.0
360,VivoCity,103.8225469361295,1.265092748646862,None,2007.0
361,Resorts World,103.8209724542675,1.255537778090035,None,2010.0
362,Beach,103.81777509142994,1.251217661042196,None,2007.0
363,Imbiah,103.81946011134886,1.253898713578577,None,2007.0
364,F,103.98863533581624,1.353378997741345,None,2007.0
365,A,103.98546838149178,1.353901789231955,None,2007.0
366,A South,103.98381182430455,1.350154286209843,None,2007.0
367,Promenade,103.86102052413827,1.292642092083199,None,2013.0
368,Bayfront,103.8590452521903,1.281824076903021,None,2013.0
369,Downtown,103.852805336821,1.279454238259035,None,2013.0
370,Bugis,103.85683156005464,1.299598258314479,None,2013.0
371,Telok Ayer,103.84848709627539,1.282254152048083,None,2013.0
372,Chinatown,103.84389520498587,1.284925842926597,None,2013.0
373,Rochor,103.85261139290832,1.303986624416415,None,2015.0
374,Little India,103.84915313332353,1.306700738519657,None,2015.0
375,Newton,103.8381561012955,1.313675003546816,None,2015.0
376,Botanic Gardens,103.81598931409229,1.322561961085714,None,2015.0
377,Stevens,103.82599148423584,1.320028238281342,None,2015.0
378,Bukit Panjang,103.7620527438976,1.378561319287515,None,2015.0
379,Sixth Avenue,103.79721493661086,1.330691320073832,None,2015.0
380,King Albert Park,103.78356912969767,1.336019758371472,None,2015.0
381,Beauty World,103.77599715708581,1.341317888375029,None,2015.0
382,Hillview,103.76712209250381,1.362648410021672,None,2015.0
383,Cashew,103.76461460063902,1.369550303348516,None,2015.0
384,Fort Canning,103.84436936137445,1.292348655058916,None,2017.0
385,Bencoolen,103.84980726150087,1.29827682445864,None,2017.0
386,Jalan Besar,103.85542992057225,1.305515325620192,None,2017.0
387,Geylang Bahru,103.87184654259738,1.321529436323203,None,2017.0
388,Mattar,103.88292886451478,1.326936914812506,None,2017.0
389,MacPherson,103.8894763275755,1.326224238061485,None,2017.0
390,Kaki Bukit,103.90817958263216,1.334877790183626,None,2017.0
391,Bedok North,103.91811494142587,1.334589911840851,None,2017.0
392,Tampines West,103.9384860861831,1.345516862972715,None,2017.0
393,Tampines,103.94297304995246,1.355124602101284,None,2017.0
394,Tampines East,103.95486133378904,1.356128990492763,None,2017.0
395,Upper Changi,103.96140018324775,1.341697254781636,None,2017.0
396,Expo,103.96225021979265,1.335393982048434,None,2017.0
397,Xilin,103.96516539752054,1.329553015899791,None,2025.0
398,Bendemeer,103.86279826894794,1.313640207153029,None,2017.0
399,Bedok Reservoir,103.93184283617765,1.336672575947831,None,2017.0
400,Ubi,103.89927998796418,1.32999142091094,None,2017.0
401,Caldecott,103.84017741381884,1.33733019808743,None,2021.0
402,Woodlands North,103.78576222412353,1.448347608848873,None,2020.0
403,Gardens by the Bay,103.86802746607935,1.279227080457204,None,2023.0
404,Orchard Boulevard,103.82406282525733,1.302512548593445,None,2023.0
405,Stevens,103.82554052028354,1.319505489519045,None,2023.0
406,Bayshore,103.94146595141109,1.313109294981217,None,2024.0
407,Siglap,103.93006212052131,1.309923095690635,None,2024.0
408,Marine Terrace,103.9161897597856,1.307031836480505,None,2024.0
409,Founders' Memorial,103.86901847410508,1.291086455068651,None,2027.0
410,Woodlands Train Checkpoint,103.76967223971627,1.444703278463223,None,1998.0
411,Johor Bahru Sentral,103.76463976408206,1.463122615315086,None,2010.0
412,Bedok South,103.94990563783085,1.317082256551032,None,2025.0
413,Upper Thomson,103.8326887565883,1.354604839760064,None,2021.0
414,Bright Hill,103.83344229586992,1.363742808216788,None,2021.0
415,Springleaf,103.81805450606686,1.398184386457564,None,2021.0
416,Marine Parade,103.9068490747822,1.303814325009256,None,2024.0
417,Tanjong Katong,103.89732343094721,1.299217478162959,None,2024.0
418,Katong Park,103.88629001181687,1.297854871852451,None,2024.0
419,Tanjong Rhu,103.87351283289047,1.297128067773016,None,2024.0
420,Marina South,103.86323586676235,1.274100206278238,None,2027.0
421,Marina Bay,103.85556581733127,1.274510389401019,None,2023.0
422,Maxwell,103.84391436792282,1.280559615579548,None,2023.0
423,Outram Park,103.83916685775085,1.281677113954288,None,2023.0
424,Prince Edward Road,103.84804989683033,1.273496111270128,None,2026.0
425,Keppel,103.8305222505724,1.270359403937823,None,2026.0
426,Cantonment,103.83625942459933,1.272921935256243,None,2026.0
427,Sungei Bedok,103.95690492440838,1.320498494182724,None,2025.0
428,Lentor,103.83662128072136,1.384868154684549,None,2021.0
429,Mayflower,103.83688569337576,1.372450843044287,None,2021.0
430,Shenton Way,103.85054484177127,1.277664139539358,None,2023.0
431,Havelock,103.83359380342505,1.288040841130324,None,2023.0
432,Great World,103.83357898456546,1.294603602010392,None,2023.0
433,Orchard,103.83137043381579,1.302897442262079,None,2023.0
434,Napier,103.81885592025789,1.306822228447927,None,2023.0
435,Mount Pleasant,103.83515342999635,1.328577001509739,None,2027.0
436,Canberra,103.82958843487705,1.443245146681363,None,2020.0
437,Hume,103.7689017380008,1.354865485642709,None,2025.0
438,Punggol Coast,103.91001755884643,1.415152289386,None,2024.0
439,Punggol,103.90235690589223,1.405213837745574,None,2003.0
440,Choa Chu Kang,103.7440667641101,1.385145870153506,None,2027.0
441,Choa Chu Kang West,103.73998059522157,1.37920175355062,None,2027.0
442,Tengah,103.7297233053586,1.365501033841698,None,2027.0
443,Yio Chu Kang,103.84493789747387,1.38178152774266,None,1987.0
444,Ang Mo Kio,103.84951167124137,1.370068152638851,None,1987.0
445,Bishan,103.84823127420866,1.351288316154692,None,1987.0
446,Braddell,103.84677261633567,1.340599801217976,None,1987.0
447,Toa Payoh,103.84758877944857,1.332366924489502,None,1987.0
448,Novena,103.84351150222102,1.320069153387166,None,1987.0
449,Newton,103.83838459045734,1.312657828773311,None,1987.0
450,Orchard,103.83218641535325,1.303208057600017,None,1987.0
451,Somerset,103.83852673521358,1.300278479909039,None,1987.0
452,Dhoby Ghaut,103.8460506734462,1.298747727510744,None,1987.0
453,Tiong Bahru,103.82682767176857,1.28619799630367,None,1988.0
454,Redhill,103.81674543651064,1.289652182594906,None,1988.0
455,Queenstown,103.80600443881588,1.294686704870244,None,1988.0
456,Commonwealth,103.79826614886832,1.302478651628732,None,1988.0
457,Buona Vista,103.7901024351754,1.307274863892222,None,1988.0
458,Clementi,103.76521895991888,1.315116563661906,None,1988.0
459,Jurong East,103.74220397691124,1.333066457541037,None,1988.0
460,Chinese Garden,103.73255607665413,1.342397420445437,None,1988.0
461,Lakeside,103.72069421267179,1.344245673672248,None,1988.0
462,Eunos,103.90290615341502,1.319790857182539,None,1990.0
463,Kembangan,103.91294480650993,1.321027364559811,None,1990.0
464,Bedok,103.93016262915876,1.324028143643304,None,1990.0
465,Simei,103.95336883893003,1.343197739337555,None,1990.0
466,Yishun,103.83504130145366,1.429375458559605,None,1989.0
467,Boon Lay,103.70573252177964,1.338519980926962,None,1990.0
468,Outram Park,103.83904134866434,1.28147986256042,None,1987.0
469,Tanjong Pagar,103.8457385083228,1.276521999060749,None,1987.0
