,nodeID,nodeLabel,latitude,longitude,mode,year
0,0,Mogi das Cruzes,-46.19821506094877,-23.521615799035345,light_rail,2009.0
1,1,Luz,-46.6352722122231,-23.535048841882258,light_rail,2009.0
2,2,Paranapiacaba,-46.30306553802441,-23.778021771743568,light_rail,2009.0
3,3,Prefeito Celso Daniel - Santo André,-46.52821053730693,-23.651912857870656,light_rail,2009.0
4,4,Luz,-46.6352722122231,-23.53507117564567,light_rail,2009.0
5,5,Paranapiacaba,-46.30309165867121,-23.778043338911004,light_rail,1867.0
6,6,Luis Carlos,-46.05822420169895,-23.458944930677774,light_rail,1914.0
7,7,Guararema,-46.03208332290208,-23.41436227430401,light_rail,1876.0
8,8,Mooca,-46.608285530642206,-23.557916317771557,light_rail,1898.0
9,9,Hospedaria dos Imigrantes,-46.61362675233508,-23.54952182366989,light_rail,1888.0
10,10,Natura,-46.834579080217395,-23.40082532736284,light_rail,2008.0
11,11,Mineral,-46.77619742740464,-23.398809221125703,light_rail,1914.0
12,12,Ecologia,-46.78925690165369,-23.404261679288922,light_rail,1914.0
13,13,Santa Fé,-46.823114281279686,-23.401278750136854,light_rail,1914.0
14,14,Luz,-46.6353696527616,-23.53503767499916,light_rail,2009.0
15,15,Chucri Zaidan,-46.69522834705927,-23.613519175316014,heavy_rail,
16,16,Vereador José Diniz,-46.67912661518576,-23.62197078812691,heavy_rail,
17,17,Campo Belo,-46.68254602838327,-23.619079318582568,heavy_rail,999999.0
18,18,Brooklin Paulista,-46.67437394442,-23.629028055304044,heavy_rail,
19,19,Jardim Aeroporto,-46.6661565047934,-23.635401441680642,heavy_rail,
20,20,Congonhas,-46.6614510719854,-23.627463038951646,heavy_rail,
21,21,Vila Cordeiro,-46.68956941464003,-23.61517333967383,heavy_rail,999999.0
22,22,Morumbi,-46.70185984671739,-23.621667235662965,heavy_rail,
23,23,Sé,-46.6335330680371,-23.5505029193684,heavy_rail,1978.0
24,24,Santana,-46.624753694112854,-23.502573552517475,heavy_rail,1975.0
25,25,São Joaquim,-46.63870291798804,-23.56191289474195,heavy_rail,1975.0
26,26,Carandiru,-46.624937646121765,-23.5091484880747,heavy_rail,1975.0
27,27,Santa Cruz,-46.63664130440497,-23.598744999713375,heavy_rail,1974.0
28,28,Praça da Árvore,-46.637899749793995,-23.610534981112735,heavy_rail,1974.0
29,29,São Bento,-46.63353595211149,-23.54431658627263,heavy_rail,1975.0
30,30,Saúde,-46.639244881032084,-23.618597084084257,heavy_rail,1974.0
31,31,Tiradentes,-46.632185074594446,-23.530972090244106,heavy_rail,1975.0
32,32,Tucuruvi,-46.60331106237598,-23.48009888591524,heavy_rail,1998.0
33,33,Parada Inglesa,-46.608867423148524,-23.487031275007368,heavy_rail,1998.0
34,34,Armênia,-46.62932552092383,-23.52546338114705,heavy_rail,1975.0
35,35,Jardim São Paulo-Ayrton Senna,-46.61673333243314,-23.492329282047194,heavy_rail,1998.0
36,36,Portuguesa-Tietê,-46.62517143693378,-23.516249463998392,heavy_rail,1975.0
37,37,Vergueiro,-46.63989149248903,-23.56862771557769,heavy_rail,1975.0
38,38,São Judas,-46.640787578595194,-23.62561218769214,heavy_rail,1974.0
39,39,Liberdade,-46.63589112943504,-23.55535301484116,heavy_rail,1975.0
40,40,Jabaquara,-46.64117436574941,-23.646319228870894,heavy_rail,1974.0
41,41,Conceição,-46.64116845581148,-23.635312244315884,heavy_rail,1974.0
42,42,Vila Mariana,-46.6347314558281,-23.58949200942446,heavy_rail,1974.0
43,43,Ana Rosa,-46.63851172268508,-23.581234238329728,heavy_rail,1975.0
44,44,Paraíso,-46.640588790002845,-23.575438170046347,heavy_rail,1975.0
45,45,Luz,-46.63361760561622,-23.53629325877955,heavy_rail,1975.0
46,46,Bresser-Mooca,-46.60707327875886,-23.54638021631914,heavy_rail,1920.0
47,47,Sé,-46.6335330680371,-23.5505029193684,heavy_rail,1978.0
48,48,Brás,-46.61580856232851,-23.547843418876667,heavy_rail,1979.0
49,49,Pedro II,-46.62593562786438,-23.54968920030899,heavy_rail,1980.0
50,50,Belém,-46.589559841936364,-23.542924571435933,heavy_rail,1981.0
51,51,Anhangabaú,-46.63925225488754,-23.547833891129784,heavy_rail,1983.0
52,52,Santa Cecília,-46.64931872999148,-23.539100329752102,heavy_rail,1983.0
53,53,Marechal Deodoro,-46.655574636801646,-23.534094428000728,heavy_rail,1988.0
54,54,Guilhermina-Esperança,-46.51667690837294,-23.529382574337106,heavy_rail,1988.0
55,55,Corinthians-Itaquera,-46.47110284291796,-23.54207504739543,heavy_rail,1988.0
56,56,Artur Alvim,-46.484292784533125,-23.540376906252277,heavy_rail,1921.0
57,57,Patriarca,-46.5015463443485,-23.53113089426415,heavy_rail,1948.0
58,58,Vila Matilde,-46.53096618726005,-23.53191022975625,heavy_rail,1921.0
59,59,Penha,-46.54253275125767,-23.533585097638355,heavy_rail,1894.0
60,60,Carrão,-46.56441963267611,-23.537901162378468,heavy_rail,1934.0
61,61,Tatuapé,-46.576420969262486,-23.540315345459913,heavy_rail,1934.0
62,62,República,-46.64280020060226,-23.54441603058905,heavy_rail,1982.0
63,63,Palmeiras - Barra Funda,-46.66748782622654,-23.5255487673048,heavy_rail,1892.0
64,64,Pirituba,-46.726078918984086,-23.488397701184468,heavy_rail,1885.0
65,65,Piqueri,-46.71493862341114,-23.50249178056879,heavy_rail,1960.0
66,66,Franco da Rocha,-46.72628995147258,-23.32953205471911,heavy_rail,1888.0
67,67,Jaraguá,-46.73881781167523,-23.45511840093195,heavy_rail,1891.0
68,68,Lapa,-46.703812845231454,-23.517583400223614,heavy_rail,1899.0
69,69,Vila Clarice,-46.744668733621154,-23.469743448796464,heavy_rail,1955.0
70,70,Vila Aurora,-46.74702096545437,-23.438797661926102,heavy_rail,2013.0
71,71,Perus,-46.75350301164838,-23.405046133313235,heavy_rail,1867.0
72,72,Baltazar Fidélis,-46.7232426033336,-23.31009035374099,heavy_rail,1955.0
73,73,Caieiras,-46.751602583850115,-23.366160644551044,heavy_rail,1883.0
74,74,Francisco Morato,-46.74233882178919,-23.2837643685057,heavy_rail,1867.0
75,75,Luz,-46.63544203116189,-23.535188953951817,heavy_rail,1867.0
76,76,Água Branca,-46.68878543089164,-23.521335985604935,heavy_rail,1867.0
77,77,Botujuru,-46.7675788,-23.2359467,heavy_rail,1908.0
78,78,Várzea Paulista,-46.8291902,-23.20891,heavy_rail,1891.0
79,79,Campo Limpo Paulista,-46.7853705,-23.2067511,heavy_rail,1881.0
80,80,Palmeiras - Barra Funda,-46.66748782622654,-23.5255487673048,heavy_rail,1892.0
81,81,Jundiaí,-46.8724945,-23.1947789,heavy_rail,1867.0
82,82,Estudantes,-46.18477445350943,-23.515723662452867,heavy_rail,1976.0
83,83,Calmon Viana,-46.33288252769512,-23.525444751934113,heavy_rail,1926.0
84,84,Luz,-46.63544203116189,-23.535188953951817,heavy_rail,1867.0
85,85,Brás Cubas,-46.22500429033542,-23.536240603847222,heavy_rail,1914.0
86,86,Corinthians-Itaquera,-46.47110284291796,-23.54207504739543,heavy_rail,1988.0
87,87,Jundiapeba,-46.25808599613383,-23.542801577335027,heavy_rail,1914.0
88,88,Poá,-46.34333543866492,-23.525240375452768,heavy_rail,1875.0
89,89,Mogi das Cruzes,-46.19797434953672,-23.521873130310894,heavy_rail,1875.0
90,90,Dom Bosco,-46.448098682292795,-23.5418120628959,heavy_rail,2000.0
91,91,Ferraz de Vasconcelos,-46.368162318183664,-23.540857134039513,heavy_rail,1926.0
92,92,Antônio Gianetti Neto,-46.38366684946942,-23.554458972813194,heavy_rail,1998.0
93,93,José Bonifácio,-46.43129182562379,-23.539192039875076,heavy_rail,2000.0
94,94,Brás,-46.61631328953024,-23.545127164024137,heavy_rail,1875.0
95,95,Guaianazes,-46.4153525174635,-23.542371983578462,heavy_rail,1875.0
96,96,Tatuapé,-46.576420969262486,-23.540315345459913,heavy_rail,1934.0
97,97,Suzano,-46.30772988897518,-23.534175795134093,heavy_rail,1875.0
98,98,Palmeiras - Barra Funda,-46.66748782622654,-23.5255487673048,heavy_rail,1892.0
99,99,Vila Tolstói,-46.52862446451247,-23.59992463350473,heavy_rail,2018.0
100,100,Camilo Haddad,-46.53837349917456,-23.594749385139973,heavy_rail,2018.0
101,101,Sapopemba,-46.501242856983694,-23.61471560282203,heavy_rail,2019.0
102,102,São Lucas,-46.54492008282469,-23.588588216025457,heavy_rail,2018.0
103,103,Jardim Planalto,-46.50879563100836,-23.604980908921696,heavy_rail,2019.0
104,104,Vila União,-46.516533071572546,-23.602876163355802,heavy_rail,2018.0
105,105,Fazenda da Juta,-46.48702014258526,-23.611298104668855,heavy_rail,2019.0
106,106,Oratório,-46.56201313398145,-23.582193936505973,heavy_rail,2014.0
107,107,Vila Prudente,-46.58333730835142,-23.584640615163508,heavy_rail,2014.0
108,108,São Mateus,-46.475962929654386,-23.61179976173351,heavy_rail,2019.0
109,109,Jardim Colonial,-46.467616872630515,-23.598575080861863,heavy_rail,2021.0
110,110,Brasilândia,-46.69571260321363,-23.463504539553853,heavy_rail,
111,111,Perdizes,-46.674043188360706,-23.536520950885652,heavy_rail,
112,112,14 Bis,-46.64990180280574,-23.555682229204024,heavy_rail,
113,113,Angélica - Pacaembu,-46.65918091309643,-23.546606706165154,heavy_rail,
114,114,SESC - Pompeia,-46.68298881700345,-23.529357054918464,heavy_rail,
115,115,PUC - Cardoso de Almeida,-46.66480884211509,-23.54174220119442,heavy_rail,
116,116,Santa Marina,-46.69090686588192,-23.51528935069234,heavy_rail,
117,117,Freguesia do Ó,-46.69356382191521,-23.502237843635168,heavy_rail,
118,118,Bela Vista,-46.64338070088884,-23.56038075419242,heavy_rail,999999.0
119,119,São Joaquim,-46.63890486790115,-23.561722318399646,heavy_rail,
120,120,Higienópolis - Mackenzie,-46.6534132250558,-23.549674892623813,heavy_rail,
121,121,Água Branca,-46.68819096231931,-23.521105584720644,heavy_rail,
122,122,Itaberaba,-46.69146014591666,-23.483957001940286,heavy_rail,
123,123,Vila Cardoso,-46.695876191949836,-23.475328502011884,heavy_rail,999999.0
124,124,João Paulo I,-46.69066123851727,-23.492087474892383,heavy_rail,
125,125,Alto do Ipiranga,-46.61262063820962,-23.602353956349717,heavy_rail,2007.0
126,126,Chácara Klabin,-46.63002161941503,-23.592822801370588,heavy_rail,2006.0
127,127,Sumaré,-46.67812307914568,-23.550795426308312,heavy_rail,1998.0
128,128,Santos-Imigrantes,-46.62071943247335,-23.595908304954705,heavy_rail,2006.0
129,129,Vila Madalena,-46.69082953081936,-23.54664545107305,heavy_rail,1998.0
130,130,Sacomã,-46.60284785331583,-23.601503651879494,heavy_rail,2010.0
131,131,Consolação,-46.66060864035998,-23.55773051393598,heavy_rail,1991.0
132,132,Trianon-Masp,-46.65386765177115,-23.563605390834766,heavy_rail,1991.0
133,133,Brigadeiro,-46.64767459237561,-23.568645713211126,heavy_rail,1991.0
134,134,Clínicas,-46.67087870773193,-23.554030013664374,heavy_rail,1992.0
135,135,Ana Rosa,-46.63851172268508,-23.581234238329728,heavy_rail,1975.0
136,136,Paraíso,-46.640588790002845,-23.575438170046347,heavy_rail,1975.0
137,137,Vila Prudente,-46.58333730835142,-23.584640615163508,heavy_rail,2014.0
138,138,Tamanduateí,-46.58944086080495,-23.59274171756006,heavy_rail,2010.0
139,139,Oscar Freire,-46.67310705875113,-23.561017678710314,heavy_rail,2018.0
140,140,São Paulo - Morumbi,-46.72360779805522,-23.58664769300993,heavy_rail,2018.0
141,141,Higienópolis - Mackenzie,-46.653757935164435,-23.549832991472258,heavy_rail,2018.0
142,142,Faria Lima,-46.69365233594479,-23.56749764288233,heavy_rail,2010.0
143,143,Paulista,-46.662261955743645,-23.555296669145662,heavy_rail,2010.0
144,144,Luz,-46.63361760561622,-23.53629325877955,heavy_rail,1975.0
145,145,Butantã,-46.70812656977745,-23.572283310517946,heavy_rail,2011.0
146,146,Pinheiros,-46.70255294281106,-23.567564161035257,heavy_rail,1957.0
147,147,Fradique Coutinho,-46.68420907651597,-23.566166020830522,heavy_rail,2014.0
148,148,República,-46.64280020060226,-23.54441603058905,heavy_rail,1982.0
149,149,Vila Sônia,-46.73214412709321,-23.59212943258745,heavy_rail,2021.0
150,150,Alto da Boa Vista,-46.69960028510899,-23.641684286737053,heavy_rail,2017.0
151,151,Borba Gato,-46.69223171617733,-23.632662744058877,heavy_rail,2017.0
152,152,Campo Belo,-46.68254602838327,-23.619079318582568,heavy_rail,999999.0
153,153,Brooklin,-46.687914742475044,-23.626413940679203,heavy_rail,2017.0
154,154,Eucaliptos,-46.66850352829167,-23.61022947777661,heavy_rail,2018.0
155,155,AACD - Servidor,-46.65209260574256,-23.597747700239495,heavy_rail,2018.0
156,156,Chácara Klabin,-46.63002161941503,-23.592822801370588,heavy_rail,2006.0
157,157,Santa Cruz,-46.63664130440497,-23.598744999713375,heavy_rail,1974.0
158,158,Campo Limpo,-46.75902059928845,-23.64904049993254,heavy_rail,2002.0
159,159,Santo Amaro,-46.719735332828805,-23.655498804069296,heavy_rail,2002.0
160,160,Vila das Belezas,-46.74597248174939,-23.640210072607005,heavy_rail,2002.0
161,161,Giovanni Gronchi,-46.734072303238605,-23.643961301384266,heavy_rail,2002.0
162,162,Adolfo Pinheiro,-46.704023219122064,-23.649978890792767,heavy_rail,2014.0
163,163,Capão Redondo,-46.76790538334447,-23.65899950864302,heavy_rail,2002.0
164,164,Largo Treze,-46.707844197634216,-23.653976131808065,heavy_rail,2002.0
165,165,Moema,-46.66179657806097,-23.603606495120037,heavy_rail,2018.0
166,166,Hospital São Paulo,-46.64560583914785,-23.598213236812466,heavy_rail,2018.0
167,167,Tamanduateí,-46.58944086080495,-23.59274171756006,heavy_rail,2010.0
168,168,São Caetano,-46.57002317509455,-23.610100660988508,heavy_rail,1883.0
169,169,Ipiranga,-46.59655228659048,-23.58248152432111,heavy_rail,1886.0
170,170,Rio Grande da Serra,-46.391357781088345,-23.744047502540568,heavy_rail,1867.0
171,171,Ribeirão Pires,-46.41451143834129,-23.71399120950001,heavy_rail,1885.0
172,172,Guapituba,-46.448953298765275,-23.691849847295018,heavy_rail,1907.0
173,173,Mauá,-46.4613315922401,-23.66820390890956,heavy_rail,1883.0
174,174,Capuava,-46.48991489343629,-23.65837515464449,heavy_rail,1920.0
175,175,Prefeito Celso Daniel - Santo André,-46.528628645397276,-23.652039172723065,heavy_rail,1867.0
176,176,Prefeito Saladino,-46.53714737693113,-23.637752501072782,heavy_rail,1952.0
177,177,Utinga,-46.5440739425479,-23.626166104633484,heavy_rail,1933.0
178,178,Brás,-46.61631328953024,-23.545127164024137,heavy_rail,1875.0
179,179,Juventus - Mooca,-46.608365053638096,-23.55795083458403,heavy_rail,1898.0
180,180,Engenheiro Manoel Feio,-46.36821833020002,-23.479311013736236,heavy_rail,1926.0
181,181,Jardim Helena - Vila Mara,-46.42165970991664,-23.492698194285964,heavy_rail,2008.0
182,182,Calmon Viana,-46.33288252769512,-23.525444751934113,heavy_rail,1926.0
183,183,Aracaré,-46.33916829928421,-23.500077009890973,heavy_rail,1950.0
184,184,Itaquaquecetuba,-46.347947944530944,-23.48606238971537,heavy_rail,1926.0
185,185,Jardim Romano,-46.38575342863311,-23.48502850151793,heavy_rail,2008.0
186,186,Itaim Paulista,-46.40229373804331,-23.493951942852505,heavy_rail,1926.0
187,187,USP Leste,-46.500820341707794,-23.485491322210237,heavy_rail,2008.0
188,188,São Miguel Paulista,-46.443643159882896,-23.490550687965708,heavy_rail,1926.0
189,189,Brás,-46.61631328953024,-23.545127164024137,heavy_rail,1875.0
190,190,Tatuapé,-46.576420969262486,-23.540315345459913,heavy_rail,1934.0
191,191,Suzano,-46.30772988897518,-23.534175795134093,heavy_rail,1875.0
192,192,Comendador Ermelino,-46.48228882849011,-23.485144177981084,heavy_rail,1926.0
193,193,Engenheiro Goulart,-46.52021820315073,-23.498130492349674,heavy_rail,1926.0
194,194,Aeroporto,-46.49280780746585,-23.43264009330437,heavy_rail,2018.0
195,195,Engenheiro Goulart,-46.52047416408897,-23.497749508052564,heavy_rail,2017.0
196,196,Guarulhos - CECAP,-46.49221168478465,-23.447472819766844,heavy_rail,2018.0
197,197,Itapevi,-46.93536682639751,-23.545712466423083,heavy_rail,1875.0
198,198,Osasco,-46.77589381475064,-23.52777996371288,heavy_rail,1892.0
199,199,Santa Terezinha ,-46.84795377602728,-23.516552481381282,heavy_rail,1940.0
200,200,Imperatriz Leopoldina,-46.73797444857507,-23.52407629620528,heavy_rail,1931.0
201,201,Lapa,-46.699109049314984,-23.520026122738997,heavy_rail,1958.0
202,202,Comandante Sampaio,-46.79571702893142,-23.52567180245424,heavy_rail,1946.0
203,203,General Miguel Costa,-46.81586776774785,-23.523505065643604,heavy_rail,1951.0
204,204,Carapicuíba,-46.83530697077535,-23.51857866629169,heavy_rail,1921.0
205,205,Jardim Silveira,-46.893538528126214,-23.52345704277006,heavy_rail,1951.0
206,206,Antônio João,-46.85866481097611,-23.51689901542369,heavy_rail,1941.0
207,207,Júlio Prestes,-46.64081099179168,-23.532795427231576,heavy_rail,1938.0
208,208,Jardim Belval,-46.88930807198207,-23.514209024221813,heavy_rail,1966.0
209,209,Jandira,-46.902207326951924,-23.527619094782523,heavy_rail,1925.0
210,210,Sagrado Coração,-46.91754445980075,-23.52926709872328,heavy_rail,1955.0
211,211,Engenheiro Cardoso,-46.92887023991335,-23.53525921270389,heavy_rail,1951.0
212,212,Santa Rita,-46.95325953953517,-23.544166925872318,heavy_rail,1975.0
213,213,Amador Bueno,-46.98380712516513,-23.53058872291207,heavy_rail,1922.0
214,214,Quitaúna,-46.80713301073001,-23.52276132077054,heavy_rail,1929.0
215,215,Barueri,-46.87485947206616,-23.512595146699198,heavy_rail,1875.0
216,216,Domingos de Moraes,-46.721620950803185,-23.518856233104202,heavy_rail,1920.0
217,217,Presidente Altino,-46.7619304282308,-23.5312735228912,heavy_rail,1919.0
218,218,Palmeiras - Barra Funda,-46.66748782622654,-23.5255487673048,heavy_rail,1892.0
219,219,Varginha,-46.71478793082258,-23.766617267390032,heavy_rail,
220,220,Mendes,-46.7067964380596,-23.74859304771327,heavy_rail,
221,221,Socorro,-46.71085942299581,-23.663285023450953,heavy_rail,1960.0
222,222,Osasco,-46.77589381475064,-23.52777996371288,heavy_rail,1892.0
223,223,Presidente Altino,-46.7619304282308,-23.5312735228912,heavy_rail,1919.0
224,224,Ceasa,-46.742554060244174,-23.537526072741926,heavy_rail,1981.0
225,225,Grajaú,-46.69706686246016,-23.73640370730095,heavy_rail,1992.0
226,226,Berrini,-46.69677289345191,-23.60473477707872,heavy_rail,2000.0
227,227,Santo Amaro,-46.719735332828805,-23.655498804069296,heavy_rail,2002.0
228,228,Jurubatuba,-46.702433192858194,-23.6772972436992,heavy_rail,1957.0
229,229,Granja Julieta,-46.71196428146797,-23.62752352165677,heavy_rail,2000.0
230,230,Hebraica - Rebouças,-46.69889090002144,-23.57348465321661,heavy_rail,2000.0
231,231,Cidade Universitária,-46.71183901346504,-23.557626815337414,heavy_rail,1981.0
232,232,Morumbi,-46.701643816263726,-23.621638385991062,heavy_rail,1957.0
233,233,Vila Olímpia,-46.69269710711981,-23.593307359723468,heavy_rail,1960.0
234,234,Cidade Jardim,-46.69102340899292,-23.585297127903146,heavy_rail,1970.0
235,235,Pinheiros,-46.70255294281106,-23.567564161035257,heavy_rail,1957.0
236,236,Villa Lobos - Jaguaré,-46.73293566922962,-23.545920956436362,heavy_rail,1960.0
237,237,Autódromo,-46.688431192384115,-23.70600299919586,heavy_rail,1957.0
238,238,Primavera - Interlagos,-46.69174101369677,-23.722844607800027,heavy_rail,1957.0
239,239,Berrini,-46.69334546372214,-23.60601168680356,bus,2010.0
240,240,Morumbi,-46.6971143584613,-23.622438541378884,bus,2010.0
241,241,Vila Galvão,-46.56665939783974,-23.45730465058574,bus,2014.0
242,242,Taboão,-46.49493347552627,-23.434555340531887,bus,2012.0
243,243,CECAP,-46.49733896097115,-23.461699661153972,bus,2012.0
244,244,Barueri,-46.87474072185523,-23.513056461857573,bus,
245,245,Itapevi,-46.93500231594397,-23.5460064966809,bus,2012.0
246,246,Jandira,-46.90207467189484,-23.527907351964885,bus,2012.0
247,247,Osasco - Km 21,-46.81582290338807,-23.52388784143156,bus,2017.0
248,248,Carapicuíba,-46.835620329784604,-23.518859556853315,bus,2016.0
249,249,João Dias,-46.734046025301154,-23.643426636764147,bus,2000.0
250,250,Capelinha,-46.76626302327509,-23.659016131407,bus,2000.0
251,251,Guarapiranga,-46.712040621793136,-23.66581267476529,bus,2004.0
252,252,Jd. Ângela,-46.77691582874584,-23.6921322229132,bus,2004.0
253,253,Santo Amaro,-46.708143976196965,-23.654522752115213,bus,2004.0
254,254,Vila Prudente,-46.58600426099247,-23.5841863844272,bus,1970.0
255,255,Amaral Gurgel,-46.64880233157385,-23.537446790968758,bus,2003.0
256,256,Pirituba,-46.715965786625844,-23.48465454163123,bus,2003.0
257,257,Lapa,-46.70012403503921,-23.52074163933645,bus,2003.0
258,258,Bandeira,-46.64223078440489,-23.54941096979985,bus,2000.0
259,259,Vila Nova Cachoeirinha,-46.673329290801746,-23.480359940032372,bus,1991.0
260,260,Princesa ISabel,-46.644354422391444,-23.534093919278547,bus,1991.0
261,261,Parelheiros,-46.73518285804167,-23.804111861395157,bus,2004.0
262,262,Grajaú,-46.69944576818128,-23.73608493373844,bus,2004.0
263,263,Varginha,-46.716856084453354,-23.76609237170925,bus,2004.0
264,264,Diadema,-46.625932663095455,-23.685291929734205,bus,1990.0
265,265,Sônia Maria,-46.48133881361659,-23.62384545030416,bus,1988.0
266,266,Ferrazópolis,-46.55110331882261,-23.720668653797418,bus,1988.0
267,267,São Bernardo,-46.552228479604,-23.69831801980323,bus,1988.0
268,268,Jabaquara,-46.63972651378887,-23.64666669969067,bus,1990.0
269,269,Piraporinha,-46.584901206428185,-23.69164501163185,bus,1990.0
270,270,São Mateus,-46.47619282524897,-23.61346665452095,bus,1988.0
271,271,Santo André,-46.526918562352705,-23.65178173836418,bus,1988.0
272,272,Mercado,-46.62932818546466,-23.546526840285324,brt,2007.0
273,273,Pedro II,-46.627062570450846,-23.55023764484018,brt,2007.0
274,274,Ana Neri,-46.615047905680086,-23.558726111051982,brt,2007.0
275,275,Alberto Lion,-46.61134369379471,-23.56415945827149,brt,2007.0
276,276,Sacomã,-46.60305866948676,-23.60288807150563,brt,2007.0
277,277,Rua do Grito,-46.59726767154717,-23.598091288053084,brt,2007.0
278,278,Nossa Senhora Aparecida,-46.59789598470738,-23.591402307113626,brt,2007.0
279,279,Dianópolis,-46.588373440136536,-23.585691201986748,brt,2009.0
280,280,Clube Atlético Ypiranga,-46.603209509920504,-23.574492058768243,brt,2007.0
281,281,Vila Prudente,-46.58333730835142,-23.584640615163508,brt,2014.0
282,282,Varginha,-46.71478793082258,-23.766617267390032,None,
283,283,Mendes,-46.7067964380596,-23.74859304771327,None,
284,284,Aeroporto,-46.49280780746585,-23.43264009330437,None,2018.0
285,285,Engenheiro Goulart,-46.52047416408897,-23.497749508052564,None,2017.0
286,286,Brasilândia,-46.69571260321363,-23.463504539553853,None,
287,287,Vila Tolstói,-46.52862446451247,-23.59992463350473,None,2018.0
288,288,Alto da Boa Vista,-46.69960028510899,-23.641684286737053,None,2017.0
289,289,Oscar Freire,-46.67310705875113,-23.561017678710314,None,2018.0
290,290,Perdizes,-46.674043188360706,-23.536520950885652,None,
291,291,Camilo Haddad,-46.53837349917456,-23.594749385139973,None,2018.0
292,292,Sapopemba,-46.501242856983694,-23.61471560282203,None,2019.0
293,293,São Lucas,-46.54492008282469,-23.588588216025457,None,2018.0
294,294,Paranapiacaba,-46.30309165867121,-23.778043338911004,None,1867.0
295,295,14 Bis,-46.64990180280574,-23.555682229204024,None,
296,296,Jardim Planalto,-46.50879563100836,-23.604980908921696,None,2019.0
297,297,Vila União,-46.516533071572546,-23.602876163355802,None,2018.0
298,298,Fazenda da Juta,-46.48702014258526,-23.611298104668855,None,2019.0
299,299,Natura,-46.834579080217395,-23.40082532736284,None,2008.0
300,300,Angélica - Pacaembu,-46.65918091309643,-23.546606706165154,None,
301,301,SESC - Pompeia,-46.68298881700345,-23.529357054918464,None,
302,302,Mineral,-46.77619742740464,-23.398809221125703,None,1914.0
303,303,Ecologia,-46.78925690165369,-23.404261679288922,None,1914.0
304,304,São Paulo - Morumbi,-46.72360779805522,-23.58664769300993,None,2018.0
305,305,Luis Carlos,-46.05822420169895,-23.458944930677774,None,1914.0
306,306,PUC - Cardoso de Almeida,-46.66480884211509,-23.54174220119442,None,
307,307,Higienópolis - Mackenzie,-46.653757935164435,-23.549832991472258,None,2018.0
308,308,Santa Marina,-46.69090686588192,-23.51528935069234,None,
309,309,Freguesia do Ó,-46.69356382191521,-23.502237843635168,None,
310,310,Borba Gato,-46.69223171617733,-23.632662744058877,None,2017.0
311,311,Chucri Zaidan,-46.69522834705927,-23.613519175316014,None,
312,312,Vereador José Diniz,-46.67912661518576,-23.62197078812691,None,
313,313,Bela Vista,-46.64338070088884,-23.56038075419242,None,999999.0
314,314,Campo Belo,-46.68254602838327,-23.619079318582568,None,999999.0
315,315,Brooklin,-46.687914742475044,-23.626413940679203,None,2017.0
316,316,Eucaliptos,-46.66850352829167,-23.61022947777661,None,2018.0
317,317,Brooklin Paulista,-46.67437394442,-23.629028055304044,None,
318,318,Jardim Aeroporto,-46.6661565047934,-23.635401441680642,None,
319,319,São Joaquim,-46.63890486790115,-23.561722318399646,None,
320,320,Higienópolis - Mackenzie,-46.6534132250558,-23.549674892623813,None,
321,321,Congonhas,-46.6614510719854,-23.627463038951646,None,
322,322,Água Branca,-46.68819096231931,-23.521105584720644,None,
323,323,AACD - Servidor,-46.65209260574256,-23.597747700239495,None,2018.0
324,324,Itaberaba,-46.69146014591666,-23.483957001940286,None,
325,325,Vila Cardoso,-46.695876191949836,-23.475328502011884,None,999999.0
326,326,João Paulo I,-46.69066123851727,-23.492087474892383,None,
327,327,Vila Cordeiro,-46.68956941464003,-23.61517333967383,None,999999.0
328,328,Mooca,-46.608285530642206,-23.557916317771557,None,1898.0
329,329,Morumbi,-46.70185984671739,-23.621667235662965,None,
330,330,Hospedaria dos Imigrantes,-46.61362675233508,-23.54952182366989,None,1888.0
331,331,Santa Fé,-46.823114281279686,-23.401278750136854,None,1914.0
332,332,Guararema,-46.03208332290208,-23.41436227430401,None,1876.0
333,333,Diadema,-46.625932663095455,-23.685291929734205,None,1990.0
334,334,Berrini,-46.69334546372214,-23.60601168680356,None,2010.0
335,335,Morumbi,-46.6971143584613,-23.622438541378884,None,2010.0
336,336,Sônia Maria,-46.48133881361659,-23.62384545030416,None,1988.0
337,337,Ferrazópolis,-46.55110331882261,-23.720668653797418,None,1988.0
338,338,São Bernardo,-46.552228479604,-23.69831801980323,None,1988.0
339,339,Jabaquara,-46.63972651378887,-23.64666669969067,None,1990.0
340,340,Piraporinha,-46.584901206428185,-23.69164501163185,None,1990.0
341,341,Socorro,-46.71085942299581,-23.663285023450953,None,1960.0
342,342,Bresser-Mooca,-46.60707327875886,-23.54638021631914,None,1920.0
343,343,São Mateus,-46.47619282524897,-23.61346665452095,None,1988.0
344,344,Santo André,-46.526918562352705,-23.65178173836418,None,1988.0
345,345,Vila Galvão,-46.56665939783974,-23.45730465058574,None,2014.0
346,346,Barueri,-46.87474072185523,-23.513056461857573,None,
347,347,Mercado,-46.62932818546466,-23.546526840285324,None,2007.0
348,348,Pedro II,-46.627062570450846,-23.55023764484018,None,2007.0
349,349,Ana Neri,-46.615047905680086,-23.558726111051982,None,2007.0
350,350,Alberto Lion,-46.61134369379471,-23.56415945827149,None,2007.0
351,351,Sacomã,-46.60305866948676,-23.60288807150563,None,2007.0
352,352,Rua do Grito,-46.59726767154717,-23.598091288053084,None,2007.0
353,353,Nossa Senhora Aparecida,-46.59789598470738,-23.591402307113626,None,2007.0
354,354,Dianópolis,-46.588373440136536,-23.585691201986748,None,2009.0
355,355,Clube Atlético Ypiranga,-46.603209509920504,-23.574492058768243,None,2007.0
356,356,Vila Prudente,-46.58600426099247,-23.5841863844272,None,1970.0
357,357,Taboão,-46.49493347552627,-23.434555340531887,None,2012.0
358,358,CECAP,-46.49733896097115,-23.461699661153972,None,2012.0
359,359,Itapevi,-46.93500231594397,-23.5460064966809,None,2012.0
360,360,Jandira,-46.90207467189484,-23.527907351964885,None,2012.0
361,361,Parelheiros,-46.73518285804167,-23.804111861395157,None,2004.0
362,362,Guarapiranga,-46.712040621793136,-23.66581267476529,None,2004.0
363,363,João Dias,-46.734046025301154,-23.643426636764147,None,2000.0
364,364,Vila Nova Cachoeirinha,-46.673329290801746,-23.480359940032372,None,1991.0
365,365,Amaral Gurgel,-46.64880233157385,-23.537446790968758,None,2003.0
366,366,Osasco - Km 21,-46.81582290338807,-23.52388784143156,None,2017.0
367,367,Grajaú,-46.69944576818128,-23.73608493373844,None,2004.0
368,368,Capelinha,-46.76626302327509,-23.659016131407,None,2000.0
369,369,Pirituba,-46.715965786625844,-23.48465454163123,None,2003.0
370,370,Bandeira,-46.64223078440489,-23.54941096979985,None,2000.0
371,371,Carapicuíba,-46.835620329784604,-23.518859556853315,None,2016.0
372,372,Varginha,-46.716856084453354,-23.76609237170925,None,2004.0
373,373,Jd. Ângela,-46.77691582874584,-23.6921322229132,None,2004.0
374,374,Santo Amaro,-46.708143976196965,-23.654522752115213,None,2004.0
375,375,Lapa,-46.70012403503921,-23.52074163933645,None,2003.0
376,376,Princesa ISabel,-46.644354422391444,-23.534093919278547,None,1991.0
377,377,Alto do Ipiranga,-46.61262063820962,-23.602353956349717,None,2007.0
378,378,Itapevi,-46.93536682639751,-23.545712466423083,None,1875.0
379,379,Engenheiro Manoel Feio,-46.36821833020002,-23.479311013736236,None,1926.0
380,380,Jardim Helena - Vila Mara,-46.42165970991664,-23.492698194285964,None,2008.0
381,381,Estudantes,-46.18477445350943,-23.515723662452867,None,1976.0
382,382,Calmon Viana,-46.33288252769512,-23.525444751934113,None,1926.0
383,383,Osasco,-46.77589381475064,-23.52777996371288,None,1892.0
384,384,Sé,-46.6335330680371,-23.5505029193684,None,1978.0
385,385,Chácara Klabin,-46.63002161941503,-23.592822801370588,None,2006.0
386,386,Santana,-46.624753694112854,-23.502573552517475,None,1975.0
387,387,Sumaré,-46.67812307914568,-23.550795426308312,None,1998.0
388,388,São Joaquim,-46.63870291798804,-23.56191289474195,None,1975.0
389,389,Carandiru,-46.624937646121765,-23.5091484880747,None,1975.0
390,390,Pirituba,-46.726078918984086,-23.488397701184468,None,1885.0
391,391,Santa Cruz,-46.63664130440497,-23.598744999713375,None,1974.0
392,392,Praça da Árvore,-46.637899749793995,-23.610534981112735,None,1974.0
393,393,São Bento,-46.63353595211149,-23.54431658627263,None,1975.0
394,394,Santos-Imigrantes,-46.62071943247335,-23.595908304954705,None,2006.0
395,395,Vila Madalena,-46.69082953081936,-23.54664545107305,None,1998.0
396,396,Saúde,-46.639244881032084,-23.618597084084257,None,1974.0
397,397,Sacomã,-46.60284785331583,-23.601503651879494,None,2010.0
398,398,Tiradentes,-46.632185074594446,-23.530972090244106,None,1975.0
399,399,Tucuruvi,-46.60331106237598,-23.48009888591524,None,1998.0
400,400,Parada Inglesa,-46.608867423148524,-23.487031275007368,None,1998.0
401,401,Armênia,-46.62932552092383,-23.52546338114705,None,1975.0
402,402,Jardim São Paulo-Ayrton Senna,-46.61673333243314,-23.492329282047194,None,1998.0
403,403,Oratório,-46.56201313398145,-23.582193936505973,None,2014.0
404,404,Faria Lima,-46.69365233594479,-23.56749764288233,None,2010.0
405,405,Portuguesa-Tietê,-46.62517143693378,-23.516249463998392,None,1975.0
406,406,Paulista,-46.662261955743645,-23.555296669145662,None,2010.0
407,407,Consolação,-46.66060864035998,-23.55773051393598,None,1991.0
408,408,Vergueiro,-46.63989149248903,-23.56862771557769,None,1975.0
409,409,Trianon-Masp,-46.65386765177115,-23.563605390834766,None,1991.0
410,410,São Judas,-46.640787578595194,-23.62561218769214,None,1974.0
411,411,Brigadeiro,-46.64767459237561,-23.568645713211126,None,1991.0
412,412,Liberdade,-46.63589112943504,-23.55535301484116,None,1975.0
413,413,Clínicas,-46.67087870773193,-23.554030013664374,None,1992.0
414,414,Piqueri,-46.71493862341114,-23.50249178056879,None,1960.0
415,415,Jabaquara,-46.64117436574941,-23.646319228870894,None,1974.0
416,416,Conceição,-46.64116845581148,-23.635312244315884,None,1974.0
417,417,Vila Mariana,-46.6347314558281,-23.58949200942446,None,1974.0
418,418,Franco da Rocha,-46.72628995147258,-23.32953205471911,None,1888.0
419,419,Jaraguá,-46.73881781167523,-23.45511840093195,None,1891.0
420,420,Lapa,-46.703812845231454,-23.517583400223614,None,1899.0
421,421,Vila Clarice,-46.744668733621154,-23.469743448796464,None,1955.0
422,422,Vila Aurora,-46.74702096545437,-23.438797661926102,None,2013.0
423,423,Perus,-46.75350301164838,-23.405046133313235,None,1867.0
424,424,Baltazar Fidélis,-46.7232426033336,-23.31009035374099,None,1955.0
425,425,Caieiras,-46.751602583850115,-23.366160644551044,None,1883.0
426,426,Francisco Morato,-46.74233882178919,-23.2837643685057,None,1867.0
427,427,Brás,-46.61580856232851,-23.547843418876667,None,1979.0
428,428,Ana Rosa,-46.63851172268508,-23.581234238329728,None,1975.0
429,429,Paraíso,-46.640588790002845,-23.575438170046347,None,1975.0
430,430,Luz,-46.63361760561622,-23.53629325877955,None,1975.0
431,431,Vila Prudente,-46.58333730835142,-23.584640615163508,None,2014.0
432,432,Tamanduateí,-46.58944086080495,-23.59274171756006,None,2010.0
433,433,Luz,-46.63544203116189,-23.535188953951817,None,1867.0
434,434,Água Branca,-46.68878543089164,-23.521335985604935,None,1867.0
435,435,Pedro II,-46.62593562786438,-23.54968920030899,None,1980.0
436,436,Belém,-46.589559841936364,-23.542924571435933,None,1981.0
437,437,Anhangabaú,-46.63925225488754,-23.547833891129784,None,1983.0
438,438,Santa Cecília,-46.64931872999148,-23.539100329752102,None,1983.0
439,439,Marechal Deodoro,-46.655574636801646,-23.534094428000728,None,1988.0
440,440,Santa Terezinha ,-46.84795377602728,-23.516552481381282,None,1940.0
441,441,Imperatriz Leopoldina,-46.73797444857507,-23.52407629620528,None,1931.0
442,442,Lapa,-46.699109049314984,-23.520026122738997,None,1958.0
443,443,Comandante Sampaio,-46.79571702893142,-23.52567180245424,None,1946.0
444,444,General Miguel Costa,-46.81586776774785,-23.523505065643604,None,1951.0
445,445,Carapicuíba,-46.83530697077535,-23.51857866629169,None,1921.0
446,446,Jardim Silveira,-46.893538528126214,-23.52345704277006,None,1951.0
447,447,Antônio João,-46.85866481097611,-23.51689901542369,None,1941.0
448,448,Júlio Prestes,-46.64081099179168,-23.532795427231576,None,1938.0
449,449,Jardim Belval,-46.88930807198207,-23.514209024221813,None,1966.0
450,450,Jandira,-46.902207326951924,-23.527619094782523,None,1925.0
451,451,Sagrado Coração,-46.91754445980075,-23.52926709872328,None,1955.0
452,452,Engenheiro Cardoso,-46.92887023991335,-23.53525921270389,None,1951.0
453,453,Santa Rita,-46.95325953953517,-23.544166925872318,None,1975.0
454,454,Amador Bueno,-46.98380712516513,-23.53058872291207,None,1922.0
455,455,Quitaúna,-46.80713301073001,-23.52276132077054,None,1929.0
456,456,Barueri,-46.87485947206616,-23.512595146699198,None,1875.0
457,457,Domingos de Moraes,-46.721620950803185,-23.518856233104202,None,1920.0
458,458,Presidente Altino,-46.7619304282308,-23.5312735228912,None,1919.0
459,459,São Caetano,-46.57002317509455,-23.610100660988508,None,1883.0
460,460,Ceasa,-46.742554060244174,-23.537526072741926,None,1981.0
461,461,Campo Limpo,-46.75902059928845,-23.64904049993254,None,2002.0
462,462,Ipiranga,-46.59655228659048,-23.58248152432111,None,1886.0
463,463,Guilhermina-Esperança,-46.51667690837294,-23.529382574337106,None,1988.0
464,464,Grajaú,-46.69706686246016,-23.73640370730095,None,1992.0
465,465,Berrini,-46.69677289345191,-23.60473477707872,None,2000.0
466,466,Santo Amaro,-46.719735332828805,-23.655498804069296,None,2002.0
467,467,Jurubatuba,-46.702433192858194,-23.6772972436992,None,1957.0
468,468,Brás Cubas,-46.22500429033542,-23.536240603847222,None,1914.0
469,469,Granja Julieta,-46.71196428146797,-23.62752352165677,None,2000.0
470,470,Rio Grande da Serra,-46.391357781088345,-23.744047502540568,None,1867.0
471,471,Vila das Belezas,-46.74597248174939,-23.640210072607005,None,2002.0
472,472,Hebraica - Rebouças,-46.69889090002144,-23.57348465321661,None,2000.0
473,473,Butantã,-46.70812656977745,-23.572283310517946,None,2011.0
474,474,Cidade Universitária,-46.71183901346504,-23.557626815337414,None,1981.0
475,475,Ribeirão Pires,-46.41451143834129,-23.71399120950001,None,1885.0
476,476,Guapituba,-46.448953298765275,-23.691849847295018,None,1907.0
477,477,Mauá,-46.4613315922401,-23.66820390890956,None,1883.0
478,478,Capuava,-46.48991489343629,-23.65837515464449,None,1920.0
479,479,Prefeito Celso Daniel - Santo André,-46.528628645397276,-23.652039172723065,None,1867.0
480,480,Corinthians-Itaquera,-46.47110284291796,-23.54207504739543,None,1988.0
481,481,Morumbi,-46.701643816263726,-23.621638385991062,None,1957.0
482,482,Vila Olímpia,-46.69269710711981,-23.593307359723468,None,1960.0
483,483,Cidade Jardim,-46.69102340899292,-23.585297127903146,None,1970.0
484,484,Pinheiros,-46.70255294281106,-23.567564161035257,None,1957.0
485,485,Villa Lobos - Jaguaré,-46.73293566922962,-23.545920956436362,None,1960.0
486,486,Autódromo,-46.688431192384115,-23.70600299919586,None,1957.0
487,487,Primavera - Interlagos,-46.69174101369677,-23.722844607800027,None,1957.0
488,488,Artur Alvim,-46.484292784533125,-23.540376906252277,None,1921.0
489,489,Patriarca,-46.5015463443485,-23.53113089426415,None,1948.0
490,490,Vila Matilde,-46.53096618726005,-23.53191022975625,None,1921.0
491,491,Penha,-46.54253275125767,-23.533585097638355,None,1894.0
492,492,Carrão,-46.56441963267611,-23.537901162378468,None,1934.0
493,493,Giovanni Gronchi,-46.734072303238605,-23.643961301384266,None,2002.0
494,494,Prefeito Saladino,-46.53714737693113,-23.637752501072782,None,1952.0
495,495,Utinga,-46.5440739425479,-23.626166104633484,None,1933.0
496,496,Fradique Coutinho,-46.68420907651597,-23.566166020830522,None,2014.0
497,497,Adolfo Pinheiro,-46.704023219122064,-23.649978890792767,None,2014.0
498,498,Jundiapeba,-46.25808599613383,-23.542801577335027,None,1914.0
499,499,Capão Redondo,-46.76790538334447,-23.65899950864302,None,2002.0
500,500,Largo Treze,-46.707844197634216,-23.653976131808065,None,2002.0
501,501,Poá,-46.34333543866492,-23.525240375452768,None,1875.0
502,502,Mogi das Cruzes,-46.19797434953672,-23.521873130310894,None,1875.0
503,503,Dom Bosco,-46.448098682292795,-23.5418120628959,None,2000.0
504,504,Ferraz de Vasconcelos,-46.368162318183664,-23.540857134039513,None,1926.0
505,505,Antônio Gianetti Neto,-46.38366684946942,-23.554458972813194,None,1998.0
506,506,Aracaré,-46.33916829928421,-23.500077009890973,None,1950.0
507,507,Itaquaquecetuba,-46.347947944530944,-23.48606238971537,None,1926.0
508,508,Jardim Romano,-46.38575342863311,-23.48502850151793,None,2008.0
509,509,Itaim Paulista,-46.40229373804331,-23.493951942852505,None,1926.0
510,510,USP Leste,-46.500820341707794,-23.485491322210237,None,2008.0
511,511,São Miguel Paulista,-46.443643159882896,-23.490550687965708,None,1926.0
512,512,José Bonifácio,-46.43129182562379,-23.539192039875076,None,2000.0
513,513,Brás,-46.61631328953024,-23.545127164024137,None,1875.0
514,514,Guaianazes,-46.4153525174635,-23.542371983578462,None,1875.0
515,515,Tatuapé,-46.576420969262486,-23.540315345459913,None,1934.0
516,516,Suzano,-46.30772988897518,-23.534175795134093,None,1875.0
517,517,Comendador Ermelino,-46.48228882849011,-23.485144177981084,None,1926.0
518,518,Engenheiro Goulart,-46.52021820315073,-23.498130492349674,None,1926.0
519,519,Juventus - Mooca,-46.608365053638096,-23.55795083458403,None,1898.0
520,520,Paranapiacaba,-46.30306553802441,-23.778021771743568,None,2009.0
521,521,Prefeito Celso Daniel - Santo André,-46.52821053730693,-23.651912857870656,None,2009.0
522,522,Mogi das Cruzes,-46.19821506094877,-23.521615799035345,None,2009.0
523,523,Luz,-46.6353696527616,-23.53503767499916,None,2009.0
524,524,Luz,-46.6352722122231,-23.535048841882258,None,2009.0
525,525,Luz,-46.6352722122231,-23.53507117564567,None,2009.0
526,526,Moema,-46.66179657806097,-23.603606495120037,None,2018.0
527,527,República,-46.64280020060226,-23.54441603058905,None,1982.0
528,528,Várzea Paulista,-46.8292035,-23.2088762,None,0.0
529,529,Botujuru,-46.7675788,-23.2359467,None,1908.0
530,530,Várzea Paulista,-46.8291902,-23.20891,None,1891.0
531,531,Campo Limpo Paulista,-46.7853705,-23.2067511,None,1881.0
532,532,Palmeiras - Barra Funda,-46.66748782622654,-23.5255487673048,None,1892.0
533,533,Jundiaí,-46.8724945,-23.1947789,None,1867.0
534,534,Guarulhos - CECAP,-46.49221168478465,-23.447472819766844,None,2018.0
535,535,Hospital São Paulo,-46.64560583914785,-23.598213236812466,None,2018.0
536,536,São Mateus,-46.475962929654386,-23.61179976173351,None,2019.0
537,537,Utinga,-46.5440164,-23.6261921,None,0.0
538,538,Prefeito Celso Daniel - Santo André,-46.5280812,-23.6520379,None,0.0
539,539,Jardim Colonial,-46.467616872630515,-23.598575080861863,None,2021.0
540,540,Prefeito Saladino - Santo André,-46.5372494,-23.6373996,None,0.0
541,541,Prefeito Saladino - Santo André,-46.5373139,-23.637468,None,0.0
542,542,Utinga,-46.544107,-23.6262316,None,0.0
543,543,Vila Sônia,-46.73214412709321,-23.59212943258745,None,2021.0
